Type,Days for shipping (real),Days for shipment (scheduled),Benefit per order,Sales per customer,Delivery Status,Late_delivery_risk,Category Id,Category Name,Customer City,Customer Country,Customer Fname,Customer Id,Customer Lname,Customer Segment,Customer State,Customer Street,Customer Zipcode,Department Id,Department Name,Latitude,Longitude,Market,Order City,Order Country,Order Customer Id,Order Item Discount,Order Item Discount Rate,Order Item Product Price,Order Item Profit Ratio,Order Item Quantity,Sales,Order Item Total,Order Profit Per Order,Order Region,Order State,Order Status,Product Name,Product Price,Shipping Mode
Debit,3,1,-6.79,1609.11,Delivered,1,7,Automotive,Nakuru,Kenya,Linda,1507,Nguyen,Home Office,Nakuru State,296 Elm St,39110,70,Auto Parts,37.522,-126.3964,Africa,Abuja,Nigeria,1507,40.95,0.2,22.75,-0.0415,9,163.8,163.8,-6.79,East Africa,Abuja Province,Complete,Car Phone Mount,22.75,Same Day
Credit,6,5,111.6,5479.89,Delivered,0,9,Toys & Games,Tijuana,Mexico,Patricia,1577,Anderson,Corporate,Tijuana State,412 Oak St,12408,90,Toys,-14.9186,-50.3496,LATAM,Rio de Janeiro,Brazil,1577,88.7,0.1,88.7,0.1398,10,798.3,798.3,111.6,Central America,Rio de Janeiro Province,Complete,RC Car,88.7,Standard Class
Credit,4,5,405.12,5101.18,Delivered,0,1,Furniture,Córdoba,Argentina,Michael,1698,Thomas,Corporate,Córdoba State,254 Main St,12087,10,Office Supplies,2.3718,-66.3556,LATAM,Mendoza,Argentina,1698,0.0,0.0,216.47,0.2674,7,1515.29,1515.29,405.12,Central America,Mendoza Province,Complete,Bookshelf Unit,216.47,Standard Class
Credit,4,3,-121.25,921.9,Delivered,1,10,Garden & Tools,Phoenix,United States,Susan,1338,Nguyen,Consumer,Phoenix State,472 Pine St,70731,100,Hardware,-25.549,-129.2294,USCA,New York,United States,1338,203.58,0.3,113.1,-0.2553,6,475.02,475.02,-121.25,North America,New York Province,Complete,Cordless Drill,113.1,Second Class
Transfer,3,3,51.18,6448.58,Delivered,0,3,Apparel,Toronto,Canada,Barbara,1790,Scott,Consumer,Toronto State,205 Pine St,47743,30,Fashion,37.0376,-40.095,USCA,Chicago,United States,1790,0.0,0.0,132.85,0.3852,1,132.85,132.85,51.18,North America,Chicago Province,Complete,Women's Blazer,132.85,Second Class
Credit,1,1,192.49,903.73,Shipped,0,5,Home & Kitchen,Nairobi,Kenya,Anthony,1135,Wilson,Home Office,Nairobi State,241 Elm St,83526,50,Home,66.6911,108.2651,Africa,Cape Coast,Ghana,1135,0.0,0.0,127.68,0.2513,6,766.08,766.08,192.49,East Africa,Cape Coast Province,Complete,Instant Pot,127.68,Same Day
Debit,3,2,-12.92,5248.36,Delivered,0,6,Health & Beauty,Mombasa,Kenya,Donald,1191,Flores,Home Office,Mombasa State,665 Cedar St,33850,60,Health,39.8116,-126.1288,Africa,Luxor,Egypt,1191,44.88,0.25,89.76,-0.096,2,134.64,134.64,-12.92,South Africa,Luxor Province,Complete,Hair Dryer Pro,89.76,First Class
Debit,3,3,-57.57,572.28,Delivered,0,5,Home & Kitchen,Kumasi,Ghana,Maria,1448,Wright,Corporate,Kumasi State,400 Main St,60577,50,Home,-26.6432,76.1517,Africa,Giza,Egypt,1448,75.88,0.3,50.59,-0.3251,5,177.06,177.06,-57.57,South Africa,Giza Province,Closed,Knife Set,50.59,Second Class
Debit,3,2,-240.49,5360.31,Delivered,0,1,Furniture,Fukuoka,Japan,Dorothy,1111,Thomas,Consumer,Fukuoka State,661 Oak St,91381,10,Office Supplies,-27.4185,86.8963,Pacific Asia,Shanghai,China,1111,461.94,0.25,923.87,-0.1735,2,1385.81,1385.81,-240.49,Oceania,Shanghai Province,Closed,Conference Table,923.87,First Class
Transfer,1,1,18.75,1643.68,On Hold,0,3,Apparel,Brisbane,Australia,Nancy,1047,White,Corporate,Brisbane State,422 Pine St,82667,30,Fashion,-43.4526,-27.0482,Pacific Asia,Delhi,India,1047,37.3,0.15,41.44,0.0887,6,211.34,211.34,18.75,East Asia,Delhi Province,Complete,Formal Shirt,41.44,Same Day
Transfer,9,5,42.32,5024.3,Shipped,1,10,Garden & Tools,Tokyo,Japan,John,1690,Davis,Consumer,Tokyo State,252 Elm St,36208,100,Hardware,-11.1808,-94.9747,Pacific Asia,Perth,Australia,1690,0.0,0.0,184.39,0.2295,1,184.39,184.39,42.32,South Asia,Perth Province,Complete,Pressure Washer,184.39,Standard Class
Transfer,4,5,9.53,3599.15,Delivered,0,6,Health & Beauty,Puebla,Mexico,Robert,1310,Jones,Home Office,Puebla State,241 Cedar St,99126,60,Health,-2.1413,-167.2587,LATAM,Córdoba,Argentina,1310,1.8,0.05,35.95,0.2791,1,34.15,34.15,9.53,South America,Córdoba Province,Complete,Protein Powder 2lb,35.95,Standard Class
Debit,7,5,-25.13,4764.76,Shipped,1,9,Toys & Games,Sydney,Australia,Anthony,1089,Nguyen,Consumer,Sydney State,491 Cedar St,95394,90,Toys,-2.5102,-75.4268,Pacific Asia,Seoul,South Korea,1089,39.5,0.3,43.89,-0.2726,3,92.17,92.17,-25.13,South Asia,Seoul Province,Pending,Board Game Premium,43.89,Standard Class
Credit,1,1,61.94,4002.47,On Hold,0,5,Home & Kitchen,Johannesburg,South Africa,Nancy,1402,Smith,Home Office,Johannesburg State,761 Oak St,39657,50,Home,30.1582,-52.9211,Africa,Tamale,Ghana,1402,0.0,0.0,117.74,0.263,2,235.48,235.48,61.94,West Africa,Tamale Province,On Hold,Instant Pot,117.74,Same Day
Transfer,5,5,-72.54,1112.14,Processing,0,9,Toys & Games,Glasgow,United Kingdom,Jessica,1743,Miller,Home Office,Glasgow State,243 Elm St,24790,90,Toys,38.9832,-63.1447,Europe,Glasgow,United Kingdom,1743,125.08,0.3,104.23,-0.2486,4,291.84,291.84,-72.54,Southern Europe,Glasgow Province,Complete,Educational Tablet,104.23,Standard Class
Credit,3,1,62.17,1223.04,Processing,1,6,Health & Beauty,Houston,United States,Ashley,1715,Anderson,Consumer,Houston State,14 Cedar St,76507,60,Health,-16.9335,69.8535,USCA,Ottawa,Canada,1715,9.84,0.05,39.35,0.3326,5,186.91,186.91,62.17,North America,Ottawa Province,Complete,Protein Powder 2lb,39.35,Same Day
Credit,3,3,-3.34,1419.25,Delivered,0,7,Automotive,Tokyo,Japan,John,1690,Davis,Consumer,Tokyo State,252 Elm St,36208,70,Auto Parts,-11.1808,-94.9747,Pacific Asia,Osaka,Japan,1690,83.34,0.2,52.09,-0.01,8,333.38,333.38,-3.34,East Asia,Osaka Province,Pending,Tire Inflator,52.09,Second Class
Credit,5,5,-16.7,6493.16,Delivered,0,2,Technology,Santiago,Chile,Sandra,1506,Martin,Corporate,Santiago State,645 Pine St,74532,20,Electronics,56.7558,129.5357,LATAM,Tijuana,Mexico,1506,350.45,0.1,389.39,-0.0053,9,3154.06,3154.06,-16.7,South America,Tijuana Province,Complete,Monitor 27in,389.39,Standard Class
Credit,1,2,19.94,5709.96,Processing,0,7,Automotive,Chicago,United States,David,1633,Flores,Home Office,Chicago State,615 Elm St,67062,70,Auto Parts,13.7375,-53.6517,USCA,Phoenix,United States,1633,19.14,0.1,23.92,0.1158,8,172.22,172.22,19.94,North America,Phoenix Province,Complete,Car Phone Mount,23.92,First Class
Credit,6,5,53.21,6143.32,Delivered,1,8,Books,Vancouver,Canada,Richard,1109,Green,Corporate,Vancouver State,119 Oak St,59986,80,Media,14.35,25.4361,USCA,Chicago,United States,1109,0.0,0.0,38.34,0.1542,9,345.06,345.06,53.21,North America,Chicago Province,Complete,Python Programming,38.34,Standard Class
Credit,1,1,15.21,1535.84,Delivered,0,2,Technology,Johannesburg,South Africa,Matthew,1663,Garcia,Corporate,Johannesburg State,311 Elm St,96570,20,Electronics,61.7037,47.1854,Africa,Kisumu,Kenya,1663,4.86,0.05,48.56,0.1649,2,92.26,92.26,15.21,South Africa,Kisumu Province,Pending,Wireless Mouse,48.56,Same Day
Credit,1,1,27.32,6397.94,Shipped,0,6,Health & Beauty,Nagoya,Japan,Christopher,1370,Johnson,Consumer,Nagoya State,780 Main St,21233,60,Health,26.8584,104.7813,Pacific Asia,Daegu,South Korea,1370,12.37,0.1,41.24,0.2453,3,111.35,111.35,27.32,Oceania,Daegu Province,Complete,Protein Powder 2lb,41.24,Same Day
Debit,1,1,91.66,7395.65,Shipped,0,1,Furniture,Chennai,India,Maria,1150,Thomas,Home Office,Chennai State,85 Pine St,70521,10,Office Supplies,-1.2512,-150.6574,Pacific Asia,Seoul,South Korea,1150,0.0,0.0,173.71,0.2638,2,347.42,347.42,91.66,Oceania,Seoul Province,Complete,Filing Cabinet,173.71,Same Day
Transfer,2,2,-26.84,7379.51,Delivered,0,10,Garden & Tools,Valencia,Spain,Thomas,1647,Thompson,Consumer,Valencia State,545 Cedar St,21592,100,Hardware,-28.1199,44.4254,Europe,Liverpool,United Kingdom,1647,119.03,0.15,113.36,-0.0398,7,674.49,674.49,-26.84,Northern Europe,Liverpool Province,Complete,Cordless Drill,113.36,First Class
Transfer,1,1,-35.48,5855.77,Delivered,0,7,Automotive,Nagoya,Japan,Karen,1660,Smith,Home Office,Nagoya State,18 Main St,11567,70,Auto Parts,-6.5377,8.5898,Pacific Asia,Brisbane,Australia,1660,83.9,0.3,46.61,-0.1812,6,195.76,195.76,-35.48,South Asia,Brisbane Province,Complete,Tire Inflator,46.61,Same Day
Transfer,1,2,543.17,5866.77,Delivered,0,3,Apparel,Los Angeles,United States,Dorothy,1554,Garcia,Home Office,Los Angeles State,421 Cedar St,54238,30,Fashion,25.4791,11.5262,USCA,Vancouver,Canada,1554,0.0,0.0,169.92,0.3552,9,1529.28,1529.28,543.17,North America,Vancouver Province,Complete,Winter Coat,169.92,First Class
Credit,6,5,-314.28,2932.63,Delivered,0,2,Technology,Ottawa,Canada,Sandra,1382,Thomas,Consumer,Ottawa State,537 Oak St,18600,20,Electronics,-19.554,2.3104,USCA,Vancouver,Canada,1382,424.19,0.2,1060.47,-0.1852,2,1696.75,1696.75,-314.28,North America,Vancouver Province,Pending,Laptop 15in,1060.47,Standard Class
Debit,3,3,3.45,839.19,Shipped,0,10,Garden & Tools,Antofagasta,Chile,Susan,1732,Flores,Consumer,Antofagasta State,23 Oak St,77917,100,Hardware,-23.4157,94.7947,LATAM,Puebla,Mexico,1732,8.95,0.1,44.75,0.0428,2,80.55,80.55,3.45,Central America,Puebla Province,Complete,Garden Hose 50ft,44.75,Second Class
Credit,2,1,171.97,5574.34,Shipped,0,7,Automotive,Montreal,Canada,Sandra,1488,Moore,Corporate,Montreal State,588 Pine St,90200,70,Auto Parts,-24.1771,61.4059,USCA,Calgary,Canada,1488,0.0,0.0,84.88,0.3377,6,509.28,509.28,171.97,North America,Calgary Province,Complete,Dash Cam HD,84.88,Same Day
Debit,5,5,-131.5,7389.24,Shipped,0,7,Automotive,Barcelona,Spain,Anthony,1148,Nguyen,Home Office,Barcelona State,87 Oak St,92306,70,Auto Parts,4.2352,86.5116,Europe,Nice,France,1148,219.24,0.3,91.35,-0.2571,8,511.56,511.56,-131.5,Southern Europe,Nice Province,Complete,Dash Cam HD,91.35,Standard Class
Transfer,5,5,-7.65,1308.69,Delivered,0,10,Garden & Tools,Hyderabad,India,Linda,1113,Miller,Consumer,Hyderabad State,815 Cedar St,57953,100,Hardware,9.0108,140.5856,Pacific Asia,Seoul,South Korea,1113,48.7,0.15,324.65,-0.0277,1,275.95,275.95,-7.65,East Asia,Seoul Province,Complete,Lawn Mower Electric,324.65,Standard Class
Credit,4,1,13.02,2615.67,Delivered,1,7,Automotive,Accra,Ghana,Lisa,1313,King,Consumer,Accra State,460 Pine St,37925,70,Auto Parts,21.6504,-118.5328,Africa,Suez,Egypt,1313,8.42,0.1,28.06,0.1719,3,75.76,75.76,13.02,South Africa,Suez Province,Complete,Car Phone Mount,28.06,Same Day
Credit,2,1,38.26,3220.43,Shipped,0,6,Health & Beauty,Antofagasta,Chile,Jennifer,1487,Thompson,Consumer,Antofagasta State,394 Oak St,51405,60,Health,-6.8501,-133.7617,LATAM,Bogotá,Colombia,1487,6.49,0.05,43.24,0.3105,3,123.23,123.23,38.26,Central America,Bogotá Province,Complete,Protein Powder 2lb,43.24,Same Day
Transfer,4,3,-44.52,1700.93,Delivered,0,6,Health & Beauty,Brisbane,Australia,Nancy,1047,White,Corporate,Brisbane State,422 Pine St,82667,60,Health,-43.4526,-27.0482,Pacific Asia,Chengdu,China,1047,152.13,0.3,101.42,-0.1254,5,354.97,354.97,-44.52,East Asia,Chengdu Province,Closed,Hair Dryer Pro,101.42,Second Class
Transfer,7,5,58.76,6743.56,Delivered,1,9,Toys & Games,Chennai,India,Betty,1776,Jackson,Home Office,Chennai State,771 Oak St,65426,90,Toys,-31.6589,-133.6832,Pacific Asia,Osaka,Japan,1776,72.33,0.1,90.41,0.0903,8,650.95,650.95,58.76,Oceania,Osaka Province,Complete,Educational Tablet,90.41,Standard Class
Debit,7,5,-81.58,2205.99,Shipped,1,8,Books,Shanghai,China,Charles,1547,Wright,Consumer,Shanghai State,54 Oak St,33414,80,Media,53.5541,-101.2931,Pacific Asia,Brisbane,Australia,1547,92.03,0.25,36.81,-0.2955,10,276.08,276.08,-81.58,South Asia,Brisbane Province,Complete,Python Programming,36.81,Standard Class
Debit,7,3,93.34,411.94,Delivered,1,2,Technology,Rosario,Argentina,William,1173,Torres,Consumer,Rosario State,375 Main St,55193,20,Electronics,-28.6536,53.4155,LATAM,Concepción,Chile,1173,31.33,0.05,125.3,0.1568,5,595.17,595.17,93.34,South America,Concepción Province,Complete,Mechanical Keyboard,125.3,Second Class
Credit,7,5,-54.38,7604.99,On Hold,1,5,Home & Kitchen,Puebla,Mexico,Sandra,1102,King,Consumer,Puebla State,86 Elm St,44737,50,Home,-15.987,65.5196,LATAM,Puebla,Mexico,1102,80.85,0.25,53.9,-0.2242,6,242.55,242.55,-54.38,Central America,Puebla Province,On Hold,Knife Set,53.9,Standard Class
Transfer,2,3,365.6,6151.23,Delivered,0,1,Furniture,Lyon,France,Susan,1476,Allen,Home Office,Lyon State,846 Main St,96652,10,Office Supplies,-30.055,105.7987,Europe,Madrid,Spain,1476,0.0,0.0,196.23,0.2329,8,1569.84,1569.84,365.6,Western Europe,Madrid Province,Closed,Bookshelf Unit,196.23,Second Class
Credit,2,3,187.72,525.98,Delivered,0,3,Apparel,Pretoria,South Africa,Ashley,1582,Nguyen,Consumer,Pretoria State,681 Cedar St,30715,30,Fashion,-18.7255,19.4957,Africa,Luxor,Egypt,1582,0.0,0.0,65.11,0.3203,9,585.99,585.99,187.72,East Africa,Luxor Province,Closed,Casual Sneakers,65.11,Second Class
Transfer,4,1,64.45,554.78,Shipped,1,10,Garden & Tools,Calgary,Canada,Richard,1669,Green,Home Office,Calgary State,809 Main St,80795,100,Hardware,-30.6399,-39.2959,USCA,Phoenix,United States,1669,0.0,0.0,227.46,0.2834,1,227.46,227.46,64.45,North America,Phoenix Province,Complete,Pressure Washer,227.46,Same Day
Transfer,1,2,-21.28,2238.61,On Hold,0,9,Toys & Games,Brisbane,Australia,Karen,1072,Smith,Home Office,Brisbane State,980 Oak St,21221,90,Toys,-28.6237,-31.8144,Pacific Asia,Bangalore,India,1072,48.27,0.25,96.54,-0.147,2,144.81,144.81,-21.28,Oceania,Bangalore Province,Closed,Educational Tablet,96.54,First Class
Credit,4,2,-27.06,5447.11,Delivered,1,8,Books,Cape Town,South Africa,James,1252,Wilson,Home Office,Cape Town State,967 Cedar St,85909,80,Media,33.6016,-69.6346,Africa,Cairo,Egypt,1252,35.81,0.2,29.84,-0.1889,6,143.23,143.23,-27.06,West Africa,Cairo Province,On Hold,Business Strategy,29.84,First Class
Transfer,1,1,13.67,6745.34,Shipped,0,9,Toys & Games,Mumbai,India,Ashley,1781,Flores,Consumer,Mumbai State,314 Oak St,31001,90,Toys,59.0658,44.6599,Pacific Asia,Hyderabad,India,1781,0.0,0.0,24.95,0.2739,2,49.9,49.9,13.67,East Asia,Hyderabad Province,On Hold,Puzzle 1000pc,24.95,Same Day
Debit,6,5,108.85,6505.63,Delivered,0,1,Furniture,Concepción,Chile,Richard,1474,Nelson,Consumer,Concepción State,538 Elm St,56255,10,Office Supplies,46.2408,-52.689,LATAM,Fortaleza,Brazil,1474,237.43,0.1,296.79,0.0509,8,2136.89,2136.89,108.85,Central America,Fortaleza Province,Complete,Office Chair Pro,296.79,Standard Class
Debit,4,3,-94.2,1529.72,Shipped,0,4,Sporting Goods,Houston,United States,Patricia,1372,Williams,Corporate,Houston State,934 Main St,75811,40,Sports,14.2586,5.7179,USCA,Ottawa,Canada,1372,150.03,0.3,50.01,-0.2691,10,350.07,350.07,-94.2,North America,Ottawa Province,Complete,Bicycle Helmet,50.01,Second Class
Credit,4,3,32.15,5509.31,Delivered,0,10,Garden & Tools,Concepción,Chile,Barbara,1579,Jones,Corporate,Concepción State,928 Elm St,96105,100,Hardware,-42.1561,78.1625,LATAM,Fortaleza,Brazil,1579,15.01,0.05,150.08,0.1127,2,285.15,285.15,32.15,Central America,Fortaleza Province,Complete,Tool Set 128pc,150.08,Second Class
Credit,5,1,278.49,1951.48,Shipped,1,1,Furniture,Seville,Spain,James,1657,Taylor,Corporate,Seville State,401 Pine St,79501,10,Office Supplies,28.7739,-156.054,Europe,Madrid,Spain,1657,0.0,0.0,169.86,0.2733,6,1019.16,1019.16,278.49,Northern Europe,Madrid Province,Complete,Filing Cabinet,169.86,Same Day
Debit,4,5,-16.78,2767.95,Shipped,0,7,Automotive,Hamburg,Germany,Nancy,1460,Hill,Home Office,Hamburg State,882 Main St,81939,70,Auto Parts,-0.0355,16.886,Europe,Lyon,France,1460,38.18,0.25,38.18,-0.1465,4,114.54,114.54,-16.78,Western Europe,Lyon Province,Complete,Car Vacuum,38.18,Standard Class
Transfer,1,2,2766.37,6608.74,Delivered,0,2,Technology,Rome,Italy,Dorothy,1492,Williams,Consumer,Rome State,492 Cedar St,67065,20,Electronics,-48.5417,-80.5487,Europe,Marseille,France,1492,0.0,0.0,1107.78,0.2497,10,11077.8,11077.8,2766.37,Western Europe,Marseille Province,Pending,Laptop 15in,1107.78,First Class
Credit,6,5,-11.7,683.62,Delivered,1,4,Sporting Goods,Accra,Ghana,James,1795,Wilson,Home Office,Accra State,644 Elm St,49650,40,Sports,67.0781,58.2291,Africa,Nairobi,Kenya,1795,22.05,0.3,36.75,-0.2275,2,51.45,51.45,-11.7,West Africa,Nairobi Province,Complete,Yoga Mat,36.75,Standard Class
Transfer,9,5,118.92,6943.75,Shipped,1,1,Furniture,Mendoza,Argentina,Linda,1626,Scott,Home Office,Mendoza State,922 Cedar St,92505,10,Office Supplies,48.7027,67.7843,LATAM,La Serena,Chile,1626,0.0,0.0,199.69,0.2978,2,399.38,399.38,118.92,South America,La Serena Province,Complete,Bookshelf Unit,199.69,Standard Class
Debit,3,2,-146.48,1701.35,Delivered,0,10,Garden & Tools,Daejeon,South Korea,Jennifer,1465,Garcia,Home Office,Daejeon State,631 Main St,46780,100,Hardware,51.6328,-122.3994,Pacific Asia,Brisbane,Australia,1465,246.5,0.25,98.6,-0.1981,10,739.5,739.5,-146.48,Oceania,Brisbane Province,Pending,Cordless Drill,98.6,First Class
Debit,2,2,464.39,6416.8,On Hold,0,1,Furniture,Valencia,Spain,Sandra,1731,Anderson,Home Office,Valencia State,829 Pine St,45580,10,Office Supplies,29.1077,64.0379,Europe,Lyon,France,1731,824.28,0.1,824.28,0.0626,10,7418.52,7418.52,464.39,Western Europe,Lyon Province,Pending,Conference Table,824.28,First Class
Transfer,6,3,-0.43,4237.91,On Hold,1,3,Apparel,Vancouver,Canada,Jennifer,1599,Adams,Consumer,Vancouver State,993 Oak St,10463,30,Fashion,20.9328,-83.9423,USCA,Montreal,Canada,1599,65.58,0.2,65.58,-0.0016,5,262.32,262.32,-0.43,North America,Montreal Province,Complete,Casual Sneakers,65.58,Second Class
Credit,2,3,213.89,5596.36,Delivered,0,3,Apparel,Pretoria,South Africa,Karen,1244,Martin,Consumer,Pretoria State,362 Elm St,78742,30,Fashion,-18.5645,-28.4496,Africa,Pretoria,South Africa,1244,0.0,0.0,91.38,0.3344,7,639.66,639.66,213.89,South Africa,Pretoria Province,Complete,Men's Jacket,91.38,Second Class
Debit,6,2,-232.19,1939.6,Delivered,1,10,Garden & Tools,Hyderabad,India,Linda,1593,White,Corporate,Hyderabad State,637 Main St,77760,100,Hardware,57.4778,-12.3832,Pacific Asia,Tokyo,Japan,1593,414.52,0.2,207.26,-0.14,10,1658.08,1658.08,-232.19,Oceania,Tokyo Province,Pending,Pressure Washer,207.26,First Class
Debit,2,3,-38.7,4526.59,Delivered,0,8,Books,Frankfurt,Germany,Barbara,1219,King,Consumer,Frankfurt State,63 Main St,64172,80,Media,-17.0618,-9.3827,Europe,Munich,Germany,1219,51.06,0.2,36.47,-0.1895,7,204.23,204.23,-38.7,Western Europe,Munich Province,Complete,Finance Fundamentals,36.47,Second Class
Debit,5,3,-2.91,1592.62,Delivered,1,5,Home & Kitchen,Vancouver,Canada,Sandra,1200,Adams,Consumer,Vancouver State,843 Pine St,85718,50,Home,33.7467,-105.4564,USCA,Chicago,United States,1200,11.64,0.2,58.18,-0.0625,1,46.54,46.54,-2.91,North America,Chicago Province,Complete,Knife Set,58.18,Second Class
Transfer,7,5,107.8,5355.09,Delivered,1,3,Apparel,Tokyo,Japan,Jessica,1104,Brown,Home Office,Tokyo State,730 Main St,68153,30,Fashion,-38.3726,-68.1815,Pacific Asia,Nagoya,Japan,1104,20.59,0.05,58.84,0.2755,7,391.29,391.29,107.8,South Asia,Nagoya Province,Pending,Casual Sneakers,58.84,Standard Class
Debit,4,3,163.59,2107.49,Delivered,0,10,Garden & Tools,Busan,South Korea,Susan,1729,Garcia,Consumer,Busan State,289 Pine St,64986,100,Hardware,22.7121,154.7532,Pacific Asia,Perth,Australia,1729,47.97,0.05,319.8,0.1795,3,911.43,911.43,163.59,Oceania,Perth Province,Complete,Lawn Mower Electric,319.8,Second Class
Credit,5,5,-21.33,5872.93,Delivered,0,10,Garden & Tools,Port Harcourt,Nigeria,Daniel,1194,Garcia,Home Office,Port Harcourt State,974 Cedar St,30210,100,Hardware,-37.7439,42.3229,Africa,Takoradi,Ghana,1194,79.68,0.15,177.06,-0.0472,3,451.5,451.5,-21.33,West Africa,Takoradi Province,Closed,Tool Set 128pc,177.06,Standard Class
Transfer,6,3,-76.87,4733.26,Processing,1,10,Garden & Tools,Nairobi,Kenya,Charles,1172,Moore,Home Office,Nairobi State,815 Cedar St,82633,100,Hardware,-57.3565,126.9327,Africa,Suez,Egypt,1172,162.7,0.2,101.69,-0.1181,8,650.82,650.82,-76.87,East Africa,Suez Province,Pending,Cordless Drill,101.69,Second Class
Debit,5,1,65.56,4494.31,Shipped,1,10,Garden & Tools,Tijuana,Mexico,David,1213,Moore,Corporate,Tijuana State,688 Elm St,78875,100,Hardware,-11.0128,155.2731,LATAM,Monterrey,Mexico,1213,75.62,0.1,94.53,0.0963,8,680.62,680.62,65.56,Central America,Monterrey Province,On Hold,Cordless Drill,94.53,Same Day
Debit,2,2,-4.31,2329.55,Shipped,0,2,Technology,Toronto,Canada,Sarah,1456,Garcia,Home Office,Toronto State,235 Oak St,61248,20,Electronics,43.5802,118.8189,USCA,Calgary,Canada,1456,81.35,0.1,81.35,-0.0059,10,732.15,732.15,-4.31,North America,Calgary Province,Complete,USB-C Hub,81.35,First Class
Credit,3,2,101.81,1124.99,Processing,0,3,Apparel,Berlin,Germany,Dorothy,1240,Wright,Corporate,Berlin State,639 Main St,41544,30,Fashion,-33.2094,-135.6951,Europe,Birmingham,United Kingdom,1240,0.0,0.0,43.49,0.3901,6,260.94,260.94,101.81,Western Europe,Birmingham Province,Complete,Formal Shirt,43.49,First Class
Credit,4,2,-352.68,6614.01,Processing,1,1,Furniture,Mombasa,Kenya,David,1206,Allen,Home Office,Mombasa State,421 Cedar St,15276,10,Office Supplies,-54.1106,-123.4076,Africa,Kano,Nigeria,1206,884.11,0.2,884.11,-0.0997,5,3536.44,3536.44,-352.68,East Africa,Kano Province,Complete,Conference Table,884.11,First Class
Transfer,2,3,-44.72,4778.63,Delivered,0,7,Automotive,Chennai,India,Betty,1776,Jackson,Home Office,Chennai State,771 Oak St,65426,70,Auto Parts,-31.6589,-133.6832,Pacific Asia,Busan,South Korea,1776,112.02,0.3,41.49,-0.1711,9,261.39,261.39,-44.72,Oceania,Busan Province,Complete,Car Vacuum,41.49,Second Class
Transfer,5,1,-12.92,2583.46,Processing,1,8,Books,Cartagena,Colombia,Barbara,1349,Smith,Corporate,Cartagena State,69 Elm St,79393,80,Media,-13.5337,28.5562,LATAM,Medellín,Colombia,1349,19.33,0.2,24.16,-0.1671,4,77.31,77.31,-12.92,South America,Medellín Province,Complete,Leadership 101,24.16,Same Day
Debit,2,1,-49.68,4627.1,Processing,0,1,Furniture,Buenos Aires,Argentina,David,1675,Hill,Home Office,Buenos Aires State,693 Cedar St,70079,10,Office Supplies,62.2117,125.868,LATAM,Cartagena,Colombia,1675,141.01,0.2,176.26,-0.0881,4,564.03,564.03,-49.68,South America,Cartagena Province,Complete,Filing Cabinet,176.26,Same Day
Transfer,5,1,-84.36,7703.12,Delivered,1,3,Apparel,Liverpool,United Kingdom,Maria,1339,Miller,Corporate,Liverpool State,161 Main St,42534,30,Fashion,65.892,-35.2769,Europe,Munich,Germany,1339,217.0,0.25,124.0,-0.1296,7,651.0,651.0,-84.36,Northern Europe,Munich Province,Pending,Women's Blazer,124.0,Same Day
Transfer,3,1,13.39,2470.62,Delivered,1,5,Home & Kitchen,Munich,Germany,Ashley,1176,Taylor,Home Office,Munich State,417 Cedar St,72049,50,Home,-27.0692,86.1189,Europe,Birmingham,United Kingdom,1176,3.66,0.05,73.16,0.1926,1,69.5,69.5,13.39,Western Europe,Birmingham Province,Complete,Coffee Maker,73.16,Same Day
Debit,1,1,240.7,3234.14,Delivered,0,2,Technology,Houston,United States,Barbara,1059,Wilson,Corporate,Houston State,507 Main St,60968,20,Electronics,-16.3032,60.9082,USCA,Calgary,Canada,1059,0.0,0.0,395.87,0.2027,3,1187.61,1187.61,240.7,North America,Calgary Province,Closed,Monitor 27in,395.87,Same Day
Credit,3,2,-45.25,3676.71,Shipped,0,3,Apparel,Delhi,India,Richard,1318,Green,Home Office,Delhi State,440 Pine St,81612,30,Fashion,28.7825,89.3268,Pacific Asia,Tokyo,Japan,1318,107.96,0.3,119.96,-0.1796,3,251.92,251.92,-45.25,East Asia,Tokyo Province,Complete,Women's Blazer,119.96,First Class
Debit,5,5,-75.18,3437.41,Shipped,0,10,Garden & Tools,Córdoba,Argentina,James,1539,Johnson,Home Office,Córdoba State,812 Elm St,88146,100,Hardware,-39.851,92.071,LATAM,Barranquilla,Colombia,1539,106.08,0.3,44.2,-0.3037,8,247.52,247.52,-75.18,South America,Barranquilla Province,Complete,Garden Hose 50ft,44.2,Standard Class
Credit,7,5,361.83,7288.14,Delivered,1,10,Garden & Tools,Rosario,Argentina,Charles,1469,Smith,Home Office,Rosario State,254 Cedar St,99674,100,Hardware,-38.4403,4.8065,LATAM,Bogotá,Colombia,1469,173.83,0.05,347.66,0.1096,10,3302.77,3302.77,361.83,South America,Bogotá Province,Closed,Lawn Mower Electric,347.66,Standard Class
Transfer,1,2,144.79,770.92,Delivered,0,9,Toys & Games,Toronto,Canada,Linda,1378,Wilson,Corporate,Toronto State,157 Cedar St,89777,90,Toys,28.5057,-33.4152,USCA,Houston,United States,1378,0.0,0.0,54.23,0.2967,9,488.07,488.07,144.79,North America,Houston Province,Complete,LEGO City Set,54.23,First Class
Transfer,4,2,-3.95,843.88,Delivered,1,8,Books,Sydney,Australia,Matthew,1352,Scott,Corporate,Sydney State,980 Cedar St,83873,80,Media,-41.5267,152.4453,Pacific Asia,Daegu,South Korea,1352,16.73,0.1,23.9,-0.0262,7,150.57,150.57,-3.95,East Asia,Daegu Province,Pending,Leadership 101,23.9,First Class
Debit,4,5,-0.42,805.17,Delivered,0,4,Sporting Goods,Cartagena,Colombia,Jessica,1144,Young,Corporate,Cartagena State,736 Elm St,47947,40,Sports,-45.0275,-162.9088,LATAM,La Serena,Chile,1144,25.19,0.15,55.97,-0.0029,3,142.72,142.72,-0.42,South America,La Serena Province,Complete,Bicycle Helmet,55.97,Standard Class
Debit,2,3,9.63,608.84,Processing,0,5,Home & Kitchen,Cologne,Germany,Matthew,1452,Anderson,Consumer,Cologne State,99 Main St,17113,50,Home,-36.861,-84.3513,Europe,Naples,Italy,1452,9.8,0.1,97.96,0.1093,1,88.16,88.16,9.63,Southern Europe,Naples Province,Complete,Air Fryer,97.96,Second Class
Debit,7,3,114.96,5417.81,Delivered,1,1,Furniture,Daegu,South Korea,Sandra,1786,Torres,Consumer,Daegu State,276 Oak St,87728,10,Office Supplies,47.4799,101.8397,Pacific Asia,Delhi,India,1786,90.67,0.1,151.12,0.1409,6,816.05,816.05,114.96,Oceania,Delhi Province,Complete,Filing Cabinet,151.12,Second Class
Debit,4,2,-83.87,1142.27,On Hold,1,2,Technology,Tijuana,Mexico,Sandra,1742,Scott,Corporate,Tijuana State,385 Cedar St,34264,20,Electronics,-2.8434,155.6342,LATAM,La Serena,Chile,1742,103.84,0.25,46.15,-0.2692,9,311.51,311.51,-83.87,Central America,La Serena Province,Complete,Wireless Mouse,46.15,First Class
Credit,2,3,-93.5,7106.59,Delivered,0,2,Technology,Phoenix,United States,Anthony,1332,Hill,Consumer,Phoenix State,164 Main St,63744,20,Electronics,-56.8917,14.1254,USCA,Toronto,Canada,1332,111.8,0.25,74.53,-0.2788,6,335.38,335.38,-93.5,North America,Toronto Province,On Hold,USB-C Hub,74.53,Second Class
Transfer,4,3,371.32,1567.58,On Hold,1,5,Home & Kitchen,Johannesburg,South Africa,Betty,1512,Wilson,Consumer,Johannesburg State,578 Elm St,59923,50,Home,-34.5118,102.0127,Africa,Alexandria,Egypt,1512,0.0,0.0,147.81,0.2791,9,1330.29,1330.29,371.32,East Africa,Alexandria Province,Complete,Instant Pot,147.81,Second Class
Transfer,4,3,-26.11,2609.02,Delivered,0,6,Health & Beauty,Kisumu,Kenya,Sandra,1070,Davis,Consumer,Kisumu State,295 Elm St,41963,60,Health,37.5619,23.7489,Africa,Port Harcourt,Nigeria,1070,80.58,0.3,38.37,-0.1389,7,188.01,188.01,-26.11,West Africa,Port Harcourt Province,Complete,Protein Powder 2lb,38.37,Second Class
Debit,5,3,107.27,7043.19,Delivered,1,7,Automotive,Ibadan,Nigeria,Linda,1635,Taylor,Corporate,Ibadan State,81 Cedar St,24253,70,Auto Parts,29.1161,32.7778,Africa,Takoradi,Ghana,1635,24.56,0.05,81.87,0.2299,6,466.66,466.66,107.27,South Africa,Takoradi Province,Complete,Dash Cam HD,81.87,Second Class
Debit,1,1,190.15,1805.38,Delivered,0,5,Home & Kitchen,Nagoya,Japan,Karen,1660,Smith,Home Office,Nagoya State,18 Main St,11567,50,Home,-6.5377,8.5898,Pacific Asia,Bangalore,India,1660,0.0,0.0,75.68,0.2792,9,681.12,681.12,190.15,East Asia,Bangalore Province,Complete,Blender Pro,75.68,Same Day
Debit,9,5,-22.77,1179.38,Delivered,1,4,Sporting Goods,Osaka,Japan,William,1623,Brown,Consumer,Osaka State,991 Cedar St,83351,40,Sports,6.8279,-99.7637,Pacific Asia,Beijing,China,1623,86.54,0.2,144.24,-0.0658,3,346.18,346.18,-22.77,East Asia,Beijing Province,Complete,Dumbbells Set,144.24,Standard Class
Transfer,4,2,280.2,2564.19,Delivered,1,10,Garden & Tools,La Serena,Chile,William,1210,King,Home Office,La Serena State,601 Oak St,16731,100,Hardware,15.858,-112.0259,LATAM,Tijuana,Mexico,1210,0.0,0.0,152.49,0.2625,7,1067.43,1067.43,280.2,South America,Tijuana Province,Complete,Tool Set 128pc,152.49,First Class
Debit,1,2,-20.73,5932.44,Shipped,0,8,Books,Nagoya,Japan,Nancy,1279,Jones,Home Office,Nagoya State,443 Elm St,19694,80,Media,-1.6213,33.2975,Pacific Asia,Daejeon,South Korea,1279,30.12,0.3,50.2,-0.2949,2,70.28,70.28,-20.73,Oceania,Daejeon Province,Pending,Data Science Handbook,50.2,First Class
Transfer,2,3,36.5,2409.16,Delivered,0,8,Books,Mumbai,India,Ashley,1781,Flores,Consumer,Mumbai State,314 Oak St,31001,80,Media,59.0658,44.6599,Pacific Asia,Incheon,South Korea,1781,0.0,0.0,34.84,0.2095,5,174.2,174.2,36.5,South Asia,Incheon Province,Complete,Python Programming,34.84,Second Class
Credit,6,3,-321.44,3110.53,Shipped,1,10,Garden & Tools,Liverpool,United Kingdom,Susan,1074,Martin,Home Office,Liverpool State,553 Pine St,65771,100,Hardware,69.5621,17.1321,Europe,Turin,Italy,1074,411.8,0.3,343.17,-0.3345,4,960.88,960.88,-321.44,Northern Europe,Turin Province,Complete,Lawn Mower Electric,343.17,Second Class
Transfer,7,3,61.66,5570.22,Delivered,1,5,Home & Kitchen,Pretoria,South Africa,Daniel,1073,Scott,Corporate,Pretoria State,468 Main St,22196,50,Home,-21.7494,-32.5036,Africa,Takoradi,Ghana,1073,0.0,0.0,129.28,0.2385,2,258.56,258.56,61.66,South Africa,Takoradi Province,Complete,Instant Pot,129.28,Second Class
Debit,3,2,66.32,7565.27,Delivered,0,1,Furniture,Delhi,India,Matthew,1435,King,Consumer,Delhi State,525 Cedar St,93476,10,Office Supplies,-18.0904,-130.7622,Pacific Asia,Chennai,India,1435,137.87,0.1,172.34,0.0535,8,1240.85,1240.85,66.32,South Asia,Chennai Province,Complete,Filing Cabinet,172.34,First Class
Debit,5,5,11.95,7032.85,Shipped,0,5,Home & Kitchen,Glasgow,United Kingdom,Mark,1617,Taylor,Consumer,Glasgow State,547 Pine St,32939,50,Home,-45.4099,96.881,Europe,Frankfurt,Germany,1617,5.17,0.05,103.41,0.1217,1,98.24,98.24,11.95,Western Europe,Frankfurt Province,On Hold,Air Fryer,103.41,Standard Class
Debit,2,1,-75.32,2298.37,Delivered,0,7,Automotive,Tokyo,Japan,James,1709,Green,Consumer,Tokyo State,864 Cedar St,94498,70,Auto Parts,-16.3359,26.7596,Pacific Asia,Brisbane,Australia,1709,168.28,0.25,67.31,-0.1492,10,504.83,504.83,-75.32,East Asia,Brisbane Province,Complete,Jump Starter Kit,67.31,Same Day
Debit,2,1,-14.42,1653.92,Delivered,0,7,Automotive,Nagoya,Japan,Susan,1007,Miller,Home Office,Nagoya State,283 Main St,89840,70,Auto Parts,22.5472,11.6076,Pacific Asia,Osaka,Japan,1007,23.74,0.3,79.13,-0.2603,1,55.39,55.39,-14.42,South Asia,Osaka Province,Complete,Jump Starter Kit,79.13,Same Day
Transfer,4,3,138.41,5089.33,Delivered,1,4,Sporting Goods,Cali,Colombia,Matthew,1187,Williams,Home Office,Cali State,565 Pine St,49315,40,Sports,50.6771,72.0151,LATAM,Barranquilla,Colombia,1187,0.0,0.0,56.41,0.3067,8,451.28,451.28,138.41,Central America,Barranquilla Province,Complete,Bicycle Helmet,56.41,Second Class
Debit,4,2,-18.05,2275.43,Shipped,1,2,Technology,Adelaide,Australia,Maria,1082,Allen,Home Office,Adelaide State,111 Oak St,91987,20,Electronics,-32.5667,54.5456,Pacific Asia,Shanghai,China,1082,23.84,0.25,47.69,-0.2523,2,71.53,71.53,-18.05,East Asia,Shanghai Province,Pending,Wireless Mouse,47.69,First Class
Credit,2,2,165.26,5518.51,Delivered,0,10,Garden & Tools,Chicago,United States,Betty,1100,Martin,Home Office,Chicago State,945 Elm St,60604,100,Hardware,68.4938,99.4138,USCA,Montreal,Canada,1100,0.0,0.0,94.32,0.2503,7,660.24,660.24,165.26,North America,Montreal Province,On Hold,Cordless Drill,94.32,First Class
Transfer,1,2,-33.93,4894.89,Delivered,0,6,Health & Beauty,Nagoya,Japan,Christopher,1370,Johnson,Consumer,Nagoya State,780 Main St,21233,60,Health,26.8584,104.7813,Pacific Asia,Busan,South Korea,1370,119.95,0.25,47.98,-0.0943,10,359.85,359.85,-33.93,East Asia,Busan Province,Pending,Face Serum,47.98,First Class
Credit,6,3,-188.7,2021.76,Delivered,1,5,Home & Kitchen,Toronto,Canada,Linda,1378,Wilson,Corporate,Toronto State,157 Cedar St,89777,50,Home,28.5057,-33.4152,USCA,Chicago,United States,1378,270.76,0.3,100.28,-0.2987,9,631.76,631.76,-188.7,North America,Chicago Province,Complete,Air Fryer,100.28,Second Class
Debit,3,2,-10.6,1197.32,Delivered,0,7,Automotive,Monterrey,Mexico,Matthew,1084,Taylor,Home Office,Monterrey State,890 Elm St,19329,70,Auto Parts,29.36,144.1298,LATAM,Antofagasta,Chile,1084,23.1,0.3,38.5,-0.1966,2,53.9,53.9,-10.6,South America,Antofagasta Province,Closed,Car Vacuum,38.5,First Class
Credit,5,3,-49.64,7446.23,Delivered,1,5,Home & Kitchen,Seville,Spain,Lisa,1479,Young,Home Office,Seville State,29 Pine St,21239,50,Home,-31.8429,36.2188,Europe,Rome,Italy,1479,72.91,0.3,121.52,-0.2918,2,170.13,170.13,-49.64,Western Europe,Rome Province,Complete,Instant Pot,121.52,Second Class
Transfer,4,1,-21.22,7299.3,Delivered,1,7,Automotive,Ottawa,Canada,John,1226,Williams,Corporate,Ottawa State,695 Main St,34219,70,Auto Parts,67.6191,-7.6656,USCA,Chicago,United States,1226,44.71,0.3,74.51,-0.2035,2,104.31,104.31,-21.22,North America,Chicago Province,On Hold,Jump Starter Kit,74.51,Same Day
Credit,8,5,19.64,1193.86,On Hold,1,7,Automotive,Kumasi,Ghana,Maria,1448,Wright,Corporate,Kumasi State,400 Main St,60577,70,Auto Parts,-26.6432,76.1517,Africa,Port Harcourt,Nigeria,1448,21.49,0.1,42.98,0.1016,5,193.41,193.41,19.64,East Africa,Port Harcourt Province,Complete,Car Vacuum,42.98,Standard Class
Credit,1,1,113.63,1932.7,Delivered,0,7,Automotive,Sapporo,Japan,Jessica,1755,Jones,Corporate,Sapporo State,742 Elm St,73891,70,Auto Parts,39.3214,23.4108,Pacific Asia,Adelaide,Australia,1755,0.0,0.0,35.12,0.3236,10,351.2,351.2,113.63,Oceania,Adelaide Province,Complete,Car Vacuum,35.12,Same Day
Transfer,4,1,29.87,2332.93,Delivered,1,1,Furniture,Toronto,Canada,Maria,1472,King,Corporate,Toronto State,115 Cedar St,93042,10,Office Supplies,47.8541,113.8566,USCA,Montreal,Canada,1472,528.06,0.15,880.1,0.01,4,2992.34,2992.34,29.87,North America,Montreal Province,Complete,Conference Table,880.1,Same Day
Transfer,4,1,-378.11,6882.87,Delivered,1,10,Garden & Tools,Valencia,Spain,Thomas,1647,Thompson,Consumer,Valencia State,545 Cedar St,21592,100,Hardware,-28.1199,44.4254,Europe,Paris,France,1647,579.6,0.3,386.4,-0.2796,5,1352.4,1352.4,-378.11,Western Europe,Paris Province,Complete,Lawn Mower Electric,386.4,Same Day
Credit,2,2,17.36,5868.69,Delivered,0,7,Automotive,Port Elizabeth,South Africa,Barbara,1676,Nelson,Consumer,Port Elizabeth State,47 Oak St,74080,70,Auto Parts,24.9981,-9.7853,Africa,Cairo,Egypt,1676,3.89,0.05,77.84,0.2348,1,73.95,73.95,17.36,South Africa,Cairo Province,Complete,Jump Starter Kit,77.84,First Class
Credit,6,5,-25.8,3646.69,Delivered,0,4,Sporting Goods,Cape Coast,Ghana,John,1404,White,Home Office,Cape Coast State,147 Pine St,74248,40,Sports,-13.2974,-105.9351,Africa,Port Elizabeth,South Africa,1404,275.46,0.2,137.73,-0.0234,10,1101.84,1101.84,-25.8,West Africa,Port Elizabeth Province,Pending,Fitness Tracker,137.73,Standard Class
Credit,4,5,4.78,2973.55,Shipped,0,5,Home & Kitchen,Brisbane,Australia,Barbara,1215,Taylor,Corporate,Brisbane State,731 Oak St,74094,50,Home,-18.7847,-51.4069,Pacific Asia,Tokyo,Japan,1215,9.45,0.1,94.5,0.0562,1,85.05,85.05,4.78,East Asia,Tokyo Province,Complete,Air Fryer,94.5,Standard Class
Transfer,3,3,-13.55,4011.28,Delivered,0,3,Apparel,Brisbane,Australia,Maria,1121,Jackson,Corporate,Brisbane State,204 Main St,69600,30,Fashion,-48.0825,-97.884,Pacific Asia,Beijing,China,1121,203.82,0.2,101.91,-0.0166,10,815.28,815.28,-13.55,South Asia,Beijing Province,Complete,Men's Jacket,101.91,Second Class
Transfer,5,1,108.12,1152.0,Delivered,1,10,Garden & Tools,Calgary,Canada,Richard,1669,Green,Home Office,Calgary State,809 Main St,80795,100,Hardware,-30.6399,-39.2959,USCA,New York,United States,1669,0.0,0.0,48.88,0.2765,8,391.04,391.04,108.12,North America,New York Province,Complete,Garden Hose 50ft,48.88,Same Day
Debit,4,5,-41.32,975.64,Shipped,0,9,Toys & Games,Guadalajara,Mexico,David,1024,Moore,Corporate,Guadalajara State,153 Elm St,34050,90,Toys,-23.7891,-85.0658,LATAM,Rosario,Argentina,1024,70.65,0.3,47.1,-0.2506,5,164.85,164.85,-41.32,South America,Rosario Province,Pending,Board Game Premium,47.1,Standard Class
Credit,2,1,95.77,241.53,Delivered,1,9,Toys & Games,Calgary,Canada,Daniel,1416,Adams,Consumer,Calgary State,125 Oak St,17686,90,Toys,67.604,117.0789,USCA,Phoenix,United States,1416,0.0,0.0,49.64,0.2756,7,347.48,347.48,95.77,North America,Phoenix Province,Complete,Board Game Premium,49.64,Same Day
Transfer,1,2,9.9,3499.8,Delivered,0,6,Health & Beauty,Chicago,United States,Linda,1041,Hill,Home Office,Chicago State,120 Elm St,15075,60,Health,51.6171,-94.3725,USCA,Montreal,Canada,1041,6.15,0.1,20.51,0.1788,3,55.38,55.38,9.9,North America,Montreal Province,Complete,Vitamin C 1000mg,20.51,First Class
Debit,2,1,17.2,2049.38,Delivered,0,1,Furniture,Los Angeles,United States,Donald,1308,King,Corporate,Los Angeles State,172 Pine St,22234,10,Office Supplies,25.0964,-84.8676,USCA,New York,United States,1308,675.59,0.15,500.44,0.0045,9,3828.37,3828.37,17.2,North America,New York Province,On Hold,Standing Desk,500.44,Same Day
Debit,3,3,103.92,5268.2,Delivered,0,3,Apparel,Bangalore,India,Daniel,1221,Johnson,Consumer,Bangalore State,677 Cedar St,40437,30,Fashion,9.5698,75.86,Pacific Asia,Bangalore,India,1221,74.06,0.1,74.06,0.1559,10,666.54,666.54,103.92,South Asia,Bangalore Province,Closed,Casual Sneakers,74.06,Second Class
Debit,5,5,-15.83,1479.54,Delivered,0,7,Automotive,Liverpool,United Kingdom,Betty,1086,Flores,Home Office,Liverpool State,953 Pine St,67560,70,Auto Parts,-43.834,64.1505,Europe,Zaragoza,Spain,1086,41.75,0.25,55.67,-0.1264,3,125.26,125.26,-15.83,Northern Europe,Zaragoza Province,Complete,Tire Inflator,55.67,Standard Class
Debit,5,5,12.54,6268.95,Delivered,0,6,Health & Beauty,Vancouver,Canada,Thomas,1389,Taylor,Home Office,Vancouver State,543 Cedar St,62055,60,Health,15.9833,-167.5018,USCA,Chicago,United States,1389,7.07,0.1,35.35,0.197,2,63.63,63.63,12.54,North America,Chicago Province,Complete,Protein Powder 2lb,35.35,Standard Class
Credit,8,5,91.4,5663.55,On Hold,1,4,Sporting Goods,Eldoret,Kenya,Jessica,1011,Adams,Home Office,Eldoret State,418 Pine St,38746,40,Sports,69.6524,-122.9672,Africa,Port Harcourt,Nigeria,1011,61.48,0.1,87.83,0.1652,7,553.33,553.33,91.4,East Africa,Port Harcourt Province,Pending,Running Shoes,87.83,Standard Class
Transfer,5,1,55.19,5555.94,Shipped,1,9,Toys & Games,Osaka,Japan,William,1623,Brown,Consumer,Osaka State,991 Cedar St,83351,90,Toys,6.8279,-99.7637,Pacific Asia,Nagoya,Japan,1623,0.0,0.0,73.06,0.2518,3,219.18,219.18,55.19,East Asia,Nagoya Province,On Hold,RC Car,73.06,Same Day
Credit,1,2,12.26,7892.72,On Hold,0,3,Apparel,Port Harcourt,Nigeria,Charles,1147,Miller,Corporate,Port Harcourt State,369 Oak St,40968,30,Fashion,-46.6354,-82.9708,Africa,Alexandria,Egypt,1147,17.76,0.15,118.37,0.1218,1,100.61,100.61,12.26,East Africa,Alexandria Province,Complete,Women's Blazer,118.37,First Class
Debit,5,5,41.9,2072.29,Delivered,0,9,Toys & Games,Pretoria,South Africa,Susan,1283,Jackson,Corporate,Pretoria State,800 Cedar St,75597,90,Toys,-40.4032,169.2189,Africa,Lagos,Nigeria,1283,44.95,0.1,89.91,0.1036,5,404.59,404.59,41.9,South Africa,Lagos Province,Complete,RC Car,89.91,Standard Class
Transfer,5,5,151.63,3362.68,Processing,0,3,Apparel,Houston,United States,Barbara,1059,Wilson,Corporate,Houston State,507 Main St,60968,30,Fashion,-16.3032,60.9082,USCA,Calgary,Canada,1059,217.62,0.15,161.2,0.123,9,1233.18,1233.18,151.63,North America,Calgary Province,Complete,Winter Coat,161.2,Standard Class
Transfer,4,5,-1.19,6747.39,Processing,0,4,Sporting Goods,Antofagasta,Chile,Susan,1732,Flores,Consumer,Antofagasta State,23 Oak St,77917,40,Sports,-23.4157,94.7947,LATAM,Mexico City,Mexico,1732,28.18,0.2,35.22,-0.0106,4,112.7,112.7,-1.19,Central America,Mexico City Province,Complete,Yoga Mat,35.22,Standard Class
Debit,1,2,45.84,2489.65,Processing,0,6,Health & Beauty,Durban,South Africa,Richard,1433,Anderson,Corporate,Durban State,473 Oak St,28111,60,Health,-6.3431,68.0049,Africa,Kisumu,Kenya,1433,6.76,0.05,22.53,0.357,6,128.42,128.42,45.84,East Africa,Kisumu Province,Complete,Vitamin C 1000mg,22.53,First Class
Credit,6,5,279.42,3790.76,Shipped,0,1,Furniture,Cape Coast,Ghana,John,1404,White,Home Office,Cape Coast State,147 Pine St,74248,10,Office Supplies,-13.2974,-105.9351,Africa,Nairobi,Kenya,1404,1158.26,0.15,857.97,0.0426,9,6563.47,6563.47,279.42,South Africa,Nairobi Province,Complete,Conference Table,857.97,Standard Class
Credit,4,5,42.68,1165.97,Delivered,0,6,Health & Beauty,Monterrey,Mexico,Robert,1006,Green,Consumer,Monterrey State,897 Main St,59823,60,Health,-23.8634,46.1327,LATAM,Valparaíso,Chile,1006,7.6,0.05,21.72,0.2955,7,144.44,144.44,42.68,Central America,Valparaíso Province,Closed,Vitamin C 1000mg,21.72,Standard Class
Debit,1,2,376.62,6746.99,Processing,0,1,Furniture,Kumasi,Ghana,Ashley,1788,Williams,Corporate,Kumasi State,213 Pine St,32119,10,Office Supplies,-53.5282,40.1214,Africa,Ibadan,Nigeria,1788,467.38,0.1,584.22,0.0895,8,4206.38,4206.38,376.62,South Africa,Ibadan Province,Complete,Standing Desk,584.22,First Class
Credit,6,2,-10.26,1752.14,Shipped,1,3,Apparel,Daejeon,South Korea,John,1766,Miller,Corporate,Daejeon State,421 Pine St,91915,30,Fashion,6.998,58.3305,Pacific Asia,Beijing,China,1766,52.44,0.2,65.55,-0.0489,4,209.76,209.76,-10.26,Oceania,Beijing Province,Complete,Casual Sneakers,65.55,First Class
Credit,2,1,-52.15,1183.76,Shipped,0,5,Home & Kitchen,Cologne,Germany,Nancy,1432,Allen,Home Office,Cologne State,913 Pine St,76074,50,Home,54.5808,-27.654,Europe,Berlin,Germany,1432,72.68,0.3,80.76,-0.3075,3,169.6,169.6,-52.15,Western Europe,Berlin Province,Complete,Coffee Maker,80.76,Same Day
Transfer,5,5,99.72,5017.38,Delivered,0,9,Toys & Games,Daegu,South Korea,Sandra,1786,Torres,Consumer,Daegu State,276 Oak St,87728,90,Toys,47.4799,101.8397,Pacific Asia,Guangzhou,China,1786,0.0,0.0,63.2,0.263,6,379.2,379.2,99.72,East Asia,Guangzhou Province,Pending,LEGO City Set,63.2,Standard Class
Transfer,3,3,69.73,1613.27,Delivered,0,9,Toys & Games,Hamburg,Germany,James,1256,Miller,Home Office,Hamburg State,476 Pine St,17923,90,Toys,20.3186,56.6966,Europe,Frankfurt,Germany,1256,0.0,0.0,43.66,0.3194,5,218.3,218.3,69.73,Northern Europe,Frankfurt Province,Pending,Board Game Premium,43.66,Second Class
Transfer,4,3,221.55,4294.78,Delivered,0,3,Apparel,Nice,France,William,1124,Hill,Consumer,Nice State,122 Main St,27275,30,Fashion,-58.0682,98.5948,Europe,Cologne,Germany,1124,0.0,0.0,111.04,0.399,5,555.2,555.2,221.55,Southern Europe,Cologne Province,Complete,Women's Blazer,111.04,Second Class
Debit,8,5,342.05,2694.76,Delivered,1,4,Sporting Goods,Mendoza,Argentina,Linda,1345,Thomas,Consumer,Mendoza State,940 Oak St,46042,40,Sports,-23.6189,130.3641,LATAM,Barranquilla,Colombia,1345,0.0,0.0,129.84,0.2927,9,1168.56,1168.56,342.05,South America,Barranquilla Province,Complete,Dumbbells Set,129.84,Standard Class
Debit,1,2,-8.18,2807.4,Shipped,0,3,Apparel,Brasília,Brazil,Barbara,1001,Davis,Consumer,Brasília State,764 Main St,98696,30,Fashion,36.2868,15.4246,LATAM,Barranquilla,Colombia,1001,65.01,0.2,81.26,-0.0315,4,260.03,260.03,-8.18,Central America,Barranquilla Province,Complete,Men's Jacket,81.26,First Class
Credit,3,2,754.6,1838.26,Processing,0,2,Technology,New York,United States,Richard,1700,Adams,Home Office,New York State,350 Cedar St,14287,20,Electronics,-21.4433,85.9819,USCA,Vancouver,Canada,1700,342.21,0.05,1140.7,0.1161,6,6501.99,6501.99,754.6,North America,Vancouver Province,On Hold,Laptop 15in,1140.7,First Class
Credit,7,3,265.71,2551.52,Delivered,1,2,Technology,Chengdu,China,Charles,1134,Miller,Consumer,Chengdu State,682 Elm St,39392,20,Electronics,50.1457,-50.9612,Pacific Asia,Adelaide,Australia,1134,0.0,0.0,1162.07,0.2287,1,1162.07,1162.07,265.71,South Asia,Adelaide Province,Complete,Laptop 15in,1162.07,Second Class
Credit,3,2,107.23,728.13,Delivered,0,4,Sporting Goods,Fortaleza,Brazil,David,1739,Young,Consumer,Fortaleza State,199 Pine St,13835,40,Sports,-48.1987,117.5929,LATAM,Buenos Aires,Argentina,1739,27.96,0.05,139.82,0.2018,4,531.32,531.32,107.23,Central America,Buenos Aires Province,Complete,Fitness Tracker,139.82,First Class
Debit,6,5,-5.0,7778.0,Delivered,0,9,Toys & Games,Daegu,South Korea,Thomas,1023,Green,Home Office,Daegu State,65 Main St,17944,90,Toys,-7.6592,-54.6371,Pacific Asia,Daejeon,South Korea,1023,41.95,0.15,93.23,-0.021,3,237.74,237.74,-5.0,Oceania,Daejeon Province,Complete,Educational Tablet,93.23,Standard Class
Transfer,5,3,-49.67,3752.44,On Hold,1,8,Books,Giza,Egypt,Charles,1394,Taylor,Consumer,Giza State,870 Cedar St,33741,80,Media,-21.8081,-9.9345,Africa,Accra,Ghana,1394,69.19,0.25,39.54,-0.2393,7,207.58,207.58,-49.67,South Africa,Accra Province,Complete,Finance Fundamentals,39.54,Second Class
Debit,5,3,1.95,2309.39,Delivered,1,9,Toys & Games,Guangzhou,China,Matthew,1311,Jones,Corporate,Guangzhou State,82 Oak St,60209,90,Toys,-48.387,104.0253,Pacific Asia,Nagoya,Japan,1311,65.95,0.15,87.94,0.0052,5,373.75,373.75,1.95,East Asia,Nagoya Province,Complete,RC Car,87.94,Second Class
Debit,5,2,-12.25,5082.45,Delivered,1,4,Sporting Goods,New York,United States,Maria,1548,Young,Home Office,New York State,866 Elm St,96235,40,Sports,3.6883,42.15,USCA,Montreal,Canada,1548,239.7,0.2,119.85,-0.0128,10,958.8,958.8,-12.25,North America,Montreal Province,Complete,Dumbbells Set,119.85,First Class
Debit,6,5,87.13,2729.25,Shipped,0,6,Health & Beauty,Ottawa,Canada,Christopher,1749,Wilson,Home Office,Ottawa State,975 Elm St,56674,60,Health,1.8574,35.0762,USCA,Houston,United States,1749,12.84,0.05,51.36,0.3572,5,243.96,243.96,87.13,North America,Houston Province,Complete,Face Serum,51.36,Standard Class
Transfer,3,1,-389.47,4026.04,Shipped,1,10,Garden & Tools,Kano,Nigeria,Donald,1160,Nguyen,Home Office,Kano State,144 Cedar St,59377,100,Hardware,-39.9471,-108.5124,Africa,Cape Town,South Africa,1160,529.53,0.25,353.02,-0.2452,6,1588.59,1588.59,-389.47,South Africa,Cape Town Province,Complete,Lawn Mower Electric,353.02,Same Day
Debit,4,3,117.78,5849.59,Shipped,1,3,Apparel,Takoradi,Ghana,Barbara,1022,Hill,Corporate,Takoradi State,836 Elm St,34957,30,Fashion,-47.7376,54.0541,Africa,Suez,Egypt,1022,22.24,0.05,63.54,0.2787,7,422.54,422.54,117.78,West Africa,Suez Province,Complete,Casual Sneakers,63.54,Second Class
Debit,6,5,559.05,7669.42,Delivered,1,1,Furniture,Cartagena,Colombia,Richard,1103,Anderson,Home Office,Cartagena State,745 Elm St,80912,10,Office Supplies,-55.3331,-146.7369,LATAM,Santiago,Chile,1103,0.0,0.0,894.03,0.3127,2,1788.06,1788.06,559.05,South America,Santiago Province,Complete,Conference Table,894.03,Standard Class
Credit,1,1,113.93,4439.51,Delivered,0,9,Toys & Games,Brisbane,Australia,Sarah,1725,Moore,Home Office,Brisbane State,484 Oak St,13517,90,Toys,42.8585,-117.6319,Pacific Asia,Osaka,Japan,1725,29.11,0.05,72.78,0.206,8,553.13,553.13,113.93,East Asia,Osaka Province,Pending,RC Car,72.78,Same Day
Credit,3,1,146.67,2955.82,Delivered,1,9,Toys & Games,Takoradi,Ghana,Barbara,1022,Hill,Corporate,Takoradi State,836 Elm St,34957,90,Toys,-47.7376,54.0541,Africa,Suez,Egypt,1022,0.0,0.0,65.27,0.2497,9,587.43,587.43,146.67,West Africa,Suez Province,Complete,LEGO City Set,65.27,Same Day
Debit,8,5,131.68,3011.85,Delivered,1,4,Sporting Goods,Cape Town,South Africa,John,1704,Thomas,Corporate,Cape Town State,525 Elm St,46325,40,Sports,-52.9202,-43.2433,Africa,Tamale,Ghana,1704,0.0,0.0,61.66,0.267,8,493.28,493.28,131.68,West Africa,Tamale Province,Complete,Bicycle Helmet,61.66,Standard Class
Transfer,4,1,-759.88,7346.63,On Hold,1,1,Furniture,Shenzhen,China,Jennifer,1155,Moore,Home Office,Shenzhen State,405 Pine St,43029,10,Office Supplies,34.0854,53.2318,Pacific Asia,Mumbai,India,1155,1698.24,0.2,849.12,-0.1119,10,6792.96,6792.96,-759.88,South Asia,Mumbai Province,Complete,Conference Table,849.12,Same Day
Transfer,7,3,83.26,3534.13,Shipped,1,6,Health & Beauty,Busan,South Korea,Susan,1729,Garcia,Consumer,Busan State,289 Pine St,64986,60,Health,22.7121,154.7532,Pacific Asia,Shanghai,China,1729,0.0,0.0,64.88,0.4278,3,194.64,194.64,83.26,Oceania,Shanghai Province,Pending,Electric Toothbrush,64.88,Second Class
Transfer,6,2,51.68,6456.7,Shipped,1,5,Home & Kitchen,Perth,Australia,Daniel,1093,Harris,Consumer,Perth State,218 Pine St,81987,50,Home,-42.9683,-72.0701,Pacific Asia,Brisbane,Australia,1093,14.57,0.05,97.1,0.1868,3,276.73,276.73,51.68,East Asia,Brisbane Province,Complete,Air Fryer,97.1,First Class
Debit,4,3,-84.96,2034.51,Shipped,0,4,Sporting Goods,Córdoba,Argentina,Thomas,1429,Flores,Consumer,Córdoba State,743 Pine St,24125,40,Sports,38.4294,-154.1899,LATAM,Valparaíso,Chile,1429,154.03,0.3,57.05,-0.2364,9,359.41,359.41,-84.96,South America,Valparaíso Province,Closed,Bicycle Helmet,57.05,Second Class
Debit,1,2,11.47,2091.48,Delivered,0,4,Sporting Goods,Houston,United States,Patricia,1372,Williams,Corporate,Houston State,934 Main St,75811,40,Sports,14.2586,5.7179,USCA,Phoenix,United States,1372,3.64,0.05,36.39,0.166,2,69.14,69.14,11.47,North America,Phoenix Province,Pending,Yoga Mat,36.39,First Class
Debit,2,1,888.18,6989.72,Delivered,0,1,Furniture,Brisbane,Australia,Maria,1121,Jackson,Corporate,Brisbane State,204 Main St,69600,10,Office Supplies,-48.0825,-97.884,Pacific Asia,Guangzhou,China,1121,219.15,0.05,626.14,0.2133,7,4163.83,4163.83,888.18,Oceania,Guangzhou Province,On Hold,Standing Desk,626.14,Same Day
Credit,3,1,21.34,3409.88,Shipped,1,3,Apparel,Fukuoka,Japan,Thomas,1145,Flores,Home Office,Fukuoka State,951 Pine St,21551,30,Fashion,-3.2275,-134.0065,Pacific Asia,Brisbane,Australia,1145,0.0,0.0,59.78,0.3569,1,59.78,59.78,21.34,South Asia,Brisbane Province,Complete,Casual Sneakers,59.78,Same Day
Transfer,2,3,6.83,6670.24,Shipped,0,8,Books,Guangzhou,China,Michael,1294,Miller,Corporate,Guangzhou State,996 Cedar St,76248,80,Media,24.8991,-30.8943,Pacific Asia,Daejeon,South Korea,1294,0.0,0.0,32.47,0.2104,1,32.47,32.47,6.83,Oceania,Daejeon Province,Complete,Python Programming,32.47,Second Class
Transfer,1,1,81.62,3259.87,Delivered,0,9,Toys & Games,Brasília,Brazil,Sarah,1727,Williams,Home Office,Brasília State,773 Pine St,86161,90,Toys,2.4632,-21.7367,LATAM,Santiago,Chile,1727,18.9,0.05,75.59,0.2273,5,359.05,359.05,81.62,South America,Santiago Province,Complete,RC Car,75.59,Same Day
Debit,1,1,-176.71,1045.53,Delivered,0,9,Toys & Games,Guadalajara,Mexico,Dorothy,1080,Young,Corporate,Guadalajara State,97 Oak St,25525,90,Toys,12.5495,-28.5008,LATAM,Córdoba,Argentina,1080,262.34,0.3,109.31,-0.2887,8,612.14,612.14,-176.71,Central America,Córdoba Province,Complete,Educational Tablet,109.31,Same Day
Transfer,6,5,149.68,2299.51,Delivered,1,6,Health & Beauty,Montreal,Canada,Ashley,1798,White,Corporate,Montreal State,934 Pine St,90338,60,Health,47.8466,145.0837,USCA,New York,United States,1798,0.0,0.0,98.94,0.3782,4,395.76,395.76,149.68,North America,New York Province,Complete,Hair Dryer Pro,98.94,Standard Class
Credit,4,5,-27.43,2652.89,Delivered,0,10,Garden & Tools,Fukuoka,Japan,William,1578,Hill,Consumer,Fukuoka State,650 Pine St,60747,100,Hardware,55.7523,107.0519,Pacific Asia,Daejeon,South Korea,1578,34.06,0.3,113.52,-0.3452,1,79.46,79.46,-27.43,East Asia,Daejeon Province,Complete,Cordless Drill,113.52,Standard Class
Debit,4,5,21.45,6976.74,Delivered,0,6,Health & Beauty,Busan,South Korea,Matthew,1720,Green,Corporate,Busan State,388 Elm St,58867,60,Health,-58.4152,-52.7271,Pacific Asia,Daegu,South Korea,1720,67.33,0.2,48.09,0.0797,7,269.3,269.3,21.45,Oceania,Daegu Province,On Hold,Face Serum,48.09,Standard Class
Transfer,4,3,62.59,4948.16,Delivered,0,5,Home & Kitchen,Durban,South Africa,Robert,1156,Young,Home Office,Durban State,154 Pine St,50662,50,Home,65.8005,67.4832,Africa,Cape Coast,Ghana,1156,0.0,0.0,105.99,0.2953,2,211.98,211.98,62.59,South Africa,Cape Coast Province,Complete,Air Fryer,105.99,Second Class
Transfer,5,1,23.23,7672.52,Delivered,1,6,Health & Beauty,Nairobi,Kenya,Anthony,1135,Wilson,Home Office,Nairobi State,241 Elm St,83526,60,Health,66.6911,108.2651,Africa,Cape Coast,Ghana,1135,76.82,0.2,38.41,0.0756,10,307.28,307.28,23.23,West Africa,Cape Coast Province,Complete,Protein Powder 2lb,38.41,Same Day
Credit,5,5,-8.33,2384.92,Delivered,0,8,Books,Concepción,Chile,Sarah,1016,Smith,Consumer,Concepción State,961 Pine St,50306,80,Media,-28.8712,-88.1037,LATAM,Medellín,Colombia,1016,44.21,0.15,32.75,-0.0332,9,250.54,250.54,-8.33,South America,Medellín Province,Complete,Python Programming,32.75,Standard Class
Credit,2,2,-6.65,3035.08,Delivered,0,6,Health & Beauty,Pretoria,South Africa,Daniel,1073,Scott,Corporate,Pretoria State,468 Main St,22196,60,Health,-21.7494,-32.5036,Africa,Takoradi,Ghana,1073,31.18,0.3,20.79,-0.0914,5,72.76,72.76,-6.65,West Africa,Takoradi Province,Complete,Vitamin C 1000mg,20.79,First Class
Transfer,3,2,91.11,532.87,Shipped,0,7,Automotive,Ibadan,Nigeria,Linda,1635,Taylor,Corporate,Ibadan State,81 Cedar St,24253,70,Auto Parts,29.1161,32.7778,Africa,Giza,Egypt,1635,22.13,0.05,55.33,0.2167,8,420.51,420.51,91.11,South Africa,Giza Province,Closed,Tire Inflator,55.33,First Class
Credit,3,2,573.99,5419.37,Shipped,0,1,Furniture,Tijuana,Mexico,Jennifer,1717,Taylor,Consumer,Tijuana State,421 Cedar St,38883,10,Office Supplies,-2.0236,-138.5564,LATAM,Puebla,Mexico,1717,0.0,0.0,606.81,0.3153,3,1820.43,1820.43,573.99,Central America,Puebla Province,Complete,Standing Desk,606.81,First Class
Transfer,5,5,-12.14,2674.82,Shipped,0,8,Books,Nakuru,Kenya,Lisa,1658,Nelson,Home Office,Nakuru State,888 Pine St,53904,80,Media,-24.8576,102.7876,Africa,Giza,Egypt,1658,13.64,0.3,22.74,-0.3814,2,31.84,31.84,-12.14,West Africa,Giza Province,Complete,Leadership 101,22.74,Standard Class
Debit,2,3,47.73,6238.8,Delivered,0,8,Books,Busan,South Korea,Matthew,1720,Green,Corporate,Busan State,388 Elm St,58867,80,Media,-58.4152,-52.7271,Pacific Asia,Sydney,Australia,1720,0.0,0.0,48.84,0.1955,5,244.2,244.2,47.73,Oceania,Sydney Province,Complete,Data Science Handbook,48.84,Second Class
Transfer,3,1,8.88,837.33,Delivered,1,6,Health & Beauty,Alexandria,Egypt,Dorothy,1485,Martin,Corporate,Alexandria State,368 Cedar St,85513,60,Health,-47.2968,-124.4797,Africa,Kano,Nigeria,1485,3.72,0.1,37.18,0.2653,1,33.46,33.46,8.88,East Africa,Kano Province,Complete,Protein Powder 2lb,37.18,Same Day
Credit,5,5,-1.98,7547.14,Delivered,0,8,Books,Beijing,China,Jennifer,1538,Davis,Home Office,Beijing State,454 Pine St,11974,80,Media,-38.2432,-76.126,Pacific Asia,Osaka,Japan,1538,9.44,0.15,20.98,-0.0369,3,53.5,53.5,-1.98,South Asia,Osaka Province,Complete,Leadership 101,20.98,Standard Class
Transfer,2,1,-39.12,2725.11,On Hold,0,8,Books,Toronto,Canada,David,1706,Adams,Corporate,Toronto State,99 Main St,61207,80,Media,56.733,-71.9533,USCA,Phoenix,United States,1706,62.47,0.25,41.65,-0.2087,6,187.42,187.42,-39.12,North America,Phoenix Province,Complete,Finance Fundamentals,41.65,Same Day
Debit,6,5,65.11,7557.93,Shipped,0,6,Health & Beauty,Shenzhen,China,Jennifer,1155,Moore,Home Office,Shenzhen State,405 Pine St,43029,60,Health,34.0854,53.2318,Pacific Asia,Sydney,Australia,1155,9.89,0.05,24.73,0.3464,8,187.95,187.95,65.11,South Asia,Sydney Province,Complete,Vitamin C 1000mg,24.73,Standard Class
Credit,2,3,8.63,3088.0,Delivered,0,8,Books,Chicago,United States,Betty,1100,Martin,Home Office,Chicago State,945 Elm St,60604,80,Media,68.4938,99.4138,USCA,Phoenix,United States,1100,24.19,0.1,34.55,0.0396,7,217.66,217.66,8.63,North America,Phoenix Province,Complete,Finance Fundamentals,34.55,Second Class
Debit,1,1,457.25,1084.36,Delivered,0,1,Furniture,Vancouver,Canada,Barbara,1315,Wilson,Home Office,Vancouver State,96 Oak St,82534,10,Office Supplies,18.1299,75.2011,USCA,Ottawa,Canada,1315,0.0,0.0,193.82,0.2949,8,1550.56,1550.56,457.25,North America,Ottawa Province,Closed,Bookshelf Unit,193.82,Same Day
Debit,3,2,18.4,6486.33,Shipped,0,8,Books,Zaragoza,Spain,James,1383,Garcia,Consumer,Zaragoza State,906 Oak St,17553,80,Media,-27.5663,-14.8075,Europe,Madrid,Spain,1383,9.35,0.05,20.77,0.1036,9,177.58,177.58,18.4,Western Europe,Madrid Province,Complete,Leadership 101,20.77,First Class
Credit,6,5,2440.73,1938.46,On Hold,0,2,Technology,Perth,Australia,Richard,1632,Young,Corporate,Perth State,254 Cedar St,41941,20,Electronics,11.2334,161.1232,Pacific Asia,Hyderabad,India,1632,0.0,0.0,1245.3,0.245,8,9962.4,9962.4,2440.73,East Asia,Hyderabad Province,Complete,Laptop 15in,1245.3,Standard Class
Transfer,2,1,-9.46,2287.35,Shipped,0,9,Toys & Games,Brasília,Brazil,Sarah,1118,Brown,Consumer,Brasília State,250 Cedar St,27781,90,Toys,-9.476,-43.8561,LATAM,Medellín,Colombia,1118,14.23,0.3,23.72,-0.2849,2,33.21,33.21,-9.46,Central America,Medellín Province,Complete,Puzzle 1000pc,23.72,Same Day
Credit,8,5,104.88,7681.45,Processing,1,5,Home & Kitchen,Eldoret,Kenya,Karen,1425,Miller,Home Office,Eldoret State,697 Elm St,54676,50,Home,-12.7655,-151.5464,Africa,Kisumu,Kenya,1425,0.0,0.0,73.71,0.2033,7,515.97,515.97,104.88,West Africa,Kisumu Province,On Hold,Blender Pro,73.71,Standard Class
Debit,5,1,-12.7,3611.73,Delivered,1,4,Sporting Goods,Toronto,Canada,Maria,1401,Moore,Consumer,Toronto State,758 Pine St,11845,40,Sports,55.9608,87.3282,USCA,Ottawa,Canada,1401,35.32,0.25,141.28,-0.1199,1,105.96,105.96,-12.7,North America,Ottawa Province,Complete,Fitness Tracker,141.28,Same Day
Transfer,2,3,-46.0,5105.37,Delivered,0,3,Apparel,Lagos,Nigeria,Dorothy,1122,Anderson,Consumer,Lagos State,138 Cedar St,36896,30,Fashion,-51.0807,90.1535,Africa,Ibadan,Nigeria,1122,231.41,0.25,185.13,-0.0663,5,694.24,694.24,-46.0,West Africa,Ibadan Province,Complete,Winter Coat,185.13,Second Class
Debit,4,3,324.17,1711.87,Delivered,0,3,Apparel,Chicago,United States,David,1633,Flores,Home Office,Chicago State,615 Elm St,67062,30,Fashion,13.7375,-53.6517,USCA,Los Angeles,United States,1633,0.0,0.0,95.84,0.3382,10,958.4,958.4,324.17,North America,Los Angeles Province,Complete,Men's Jacket,95.84,Second Class
Credit,6,5,62.88,923.66,Delivered,1,7,Automotive,Port Elizabeth,South Africa,Barbara,1676,Nelson,Consumer,Port Elizabeth State,47 Oak St,74080,70,Auto Parts,24.9981,-9.7853,Africa,Kisumu,Kenya,1676,0.0,0.0,62.99,0.3327,3,188.97,188.97,62.88,West Africa,Kisumu Province,Complete,Jump Starter Kit,62.99,Standard Class
Debit,9,5,104.14,2530.29,Shipped,1,6,Health & Beauty,Toronto,Canada,Maria,1401,Moore,Consumer,Toronto State,758 Pine St,11845,60,Health,55.9608,87.3282,USCA,Vancouver,Canada,1401,0.0,0.0,41.63,0.3574,7,291.41,291.41,104.14,North America,Vancouver Province,Complete,Face Serum,41.63,Standard Class
Transfer,8,5,-86.25,379.7,Delivered,1,10,Garden & Tools,London,United Kingdom,Donald,1033,Davis,Corporate,London State,301 Oak St,67433,100,Hardware,48.3868,69.2036,Europe,Madrid,Spain,1033,177.31,0.2,147.76,-0.1216,6,709.25,709.25,-86.25,Northern Europe,Madrid Province,Complete,Tool Set 128pc,147.76,Standard Class
Transfer,5,3,15.19,2918.72,Delivered,1,3,Apparel,Houston,United States,David,1374,Flores,Home Office,Houston State,161 Cedar St,43801,30,Fashion,-18.4326,77.215,USCA,Vancouver,Canada,1374,11.05,0.1,110.51,0.1528,1,99.46,99.46,15.19,North America,Vancouver Province,Complete,Women's Blazer,110.51,Second Class
Debit,5,3,-63.57,1492.09,Delivered,1,5,Home & Kitchen,Phoenix,United States,Betty,1764,Williams,Home Office,Phoenix State,874 Cedar St,22416,50,Home,16.9424,-77.0559,USCA,Phoenix,United States,1764,136.39,0.25,60.62,-0.1554,9,409.18,409.18,-63.57,North America,Phoenix Province,Complete,Knife Set,60.62,Second Class
Transfer,2,1,-6.51,7137.71,Delivered,0,8,Books,Nagoya,Japan,Nancy,1457,Adams,Home Office,Nagoya State,673 Pine St,11461,80,Media,11.9581,18.7237,Pacific Asia,Guangzhou,China,1457,19.92,0.15,22.13,-0.0577,6,112.86,112.86,-6.51,East Asia,Guangzhou Province,Complete,Leadership 101,22.13,Same Day
Credit,3,3,-110.4,5324.25,Delivered,0,5,Home & Kitchen,Adelaide,Australia,Matthew,1420,Scott,Home Office,Adelaide State,107 Elm St,96732,50,Home,34.4648,-6.1439,Pacific Asia,Tokyo,Japan,1420,175.78,0.2,125.56,-0.157,7,703.14,703.14,-110.4,East Asia,Tokyo Province,Complete,Instant Pot,125.56,Second Class
Debit,3,2,113.11,4312.65,Delivered,0,3,Apparel,Montreal,Canada,Charles,1126,Young,Consumer,Montreal State,472 Cedar St,39038,30,Fashion,62.904,-155.2559,USCA,Ottawa,Canada,1126,0.0,0.0,58.66,0.3214,6,351.96,351.96,113.11,North America,Ottawa Province,Complete,Casual Sneakers,58.66,First Class
Credit,1,1,257.03,6461.26,Delivered,0,9,Toys & Games,Cape Coast,Ghana,Matthew,1734,Nguyen,Consumer,Cape Coast State,437 Elm St,20013,90,Toys,-44.8465,-125.3811,Africa,Cape Town,South Africa,1734,0.0,0.0,83.11,0.3093,10,831.1,831.1,257.03,West Africa,Cape Town Province,Complete,RC Car,83.11,Same Day
Credit,2,1,-92.2,2418.05,Delivered,1,1,Furniture,Cologne,Germany,Nancy,1432,Allen,Home Office,Cologne State,913 Pine St,76074,10,Office Supplies,54.5808,-27.654,Europe,Madrid,Spain,1432,158.16,0.3,175.73,-0.2499,3,369.03,369.03,-92.2,Southern Europe,Madrid Province,Complete,Bookshelf Unit,175.73,Same Day
Credit,1,1,453.09,6241.98,Delivered,0,1,Furniture,Abuja,Nigeria,Sarah,1541,Davis,Corporate,Abuja State,581 Pine St,67503,10,Office Supplies,35.3145,-162.74,Africa,Cairo,Egypt,1541,0.0,0.0,817.89,0.277,2,1635.78,1635.78,453.09,South Africa,Cairo Province,Complete,Conference Table,817.89,Same Day
Credit,6,5,-143.26,1282.13,Delivered,0,10,Garden & Tools,Cologne,Germany,Charles,1403,Young,Corporate,Cologne State,181 Main St,15992,100,Hardware,-21.2337,-71.1186,Europe,Paris,France,1403,231.58,0.3,96.49,-0.2651,8,540.34,540.34,-143.26,Western Europe,Paris Province,Complete,Cordless Drill,96.49,Standard Class
Transfer,6,5,5.29,2768.77,Delivered,1,7,Automotive,Vancouver,Canada,Dorothy,1175,Jones,Consumer,Vancouver State,743 Elm St,14847,70,Auto Parts,-21.8525,-155.1059,USCA,Toronto,Canada,1175,147.71,0.2,82.06,0.009,9,590.83,590.83,5.29,North America,Toronto Province,Complete,Dash Cam HD,82.06,Standard Class
Transfer,5,3,139.68,4707.5,On Hold,1,7,Automotive,Ottawa,Canada,Nancy,1716,Jones,Home Office,Ottawa State,756 Elm St,54392,70,Auto Parts,29.5891,78.7578,USCA,Toronto,Canada,1716,32.52,0.05,65.04,0.2261,10,617.88,617.88,139.68,North America,Toronto Province,Complete,Jump Starter Kit,65.04,Second Class
Debit,2,2,-32.64,7779.77,Processing,0,8,Books,Buenos Aires,Argentina,Donald,1330,Harris,Corporate,Buenos Aires State,802 Pine St,52899,80,Media,-48.7699,-14.7063,LATAM,Mexico City,Mexico,1330,36.73,0.3,30.61,-0.3808,4,85.71,85.71,-32.64,South America,Mexico City Province,Complete,Business Strategy,30.61,First Class
Debit,5,2,-15.15,7330.18,Delivered,1,4,Sporting Goods,Turin,Italy,Linda,1687,Garcia,Home Office,Turin State,954 Main St,17081,40,Sports,23.8319,-73.0781,Europe,Nice,France,1687,33.39,0.25,33.39,-0.1512,4,100.17,100.17,-15.15,Western Europe,Nice Province,Pending,Yoga Mat,33.39,First Class
Transfer,3,2,51.81,7034.33,Delivered,0,6,Health & Beauty,Naples,Italy,Mark,1464,Thomas,Consumer,Naples State,705 Pine St,72908,60,Health,0.1703,-48.0279,Europe,Hamburg,Germany,1464,30.49,0.1,43.56,0.1888,7,274.43,274.43,51.81,Southern Europe,Hamburg Province,On Hold,Protein Powder 2lb,43.56,First Class
Transfer,1,1,21.67,1374.84,Processing,0,2,Technology,Lagos,Nigeria,Betty,1017,Martin,Consumer,Lagos State,788 Cedar St,26483,20,Electronics,-43.3091,-8.404,Africa,Nakuru,Kenya,1017,13.76,0.05,55.05,0.0829,5,261.49,261.49,21.67,West Africa,Nakuru Province,Complete,Wireless Mouse,55.05,Same Day
Transfer,1,1,1.78,4833.58,Delivered,0,7,Automotive,Toulouse,France,Susan,1342,Wright,Home Office,Toulouse State,970 Main St,86326,70,Auto Parts,16.1954,141.9257,Europe,Toulouse,France,1342,32.06,0.15,35.62,0.0098,6,181.66,181.66,1.78,Western Europe,Toulouse Province,Complete,Car Vacuum,35.62,Same Day
Debit,4,3,402.46,988.05,On Hold,1,10,Garden & Tools,Frankfurt,Germany,James,1532,Garcia,Consumer,Frankfurt State,298 Pine St,26389,100,Hardware,32.9755,77.2164,Europe,Paris,France,1532,0.0,0.0,351.93,0.2859,4,1407.72,1407.72,402.46,Northern Europe,Paris Province,Complete,Lawn Mower Electric,351.93,Second Class
Transfer,3,3,93.31,1643.61,Delivered,0,10,Garden & Tools,Johannesburg,South Africa,Nancy,1402,Smith,Home Office,Johannesburg State,761 Oak St,39657,100,Hardware,30.1582,-52.9211,Africa,Nairobi,Kenya,1402,174.19,0.1,348.38,0.0595,5,1567.71,1567.71,93.31,West Africa,Nairobi Province,On Hold,Lawn Mower Electric,348.38,Second Class
Debit,8,5,38.19,2805.62,Shipped,1,10,Garden & Tools,Montreal,Canada,John,1757,Johnson,Consumer,Montreal State,614 Main St,26803,100,Hardware,48.8014,-51.3819,USCA,Houston,United States,1757,102.22,0.1,340.74,0.0415,3,920.0,920.0,38.19,North America,Houston Province,Complete,Lawn Mower Electric,340.74,Standard Class
Credit,1,1,198.78,4624.68,Delivered,0,5,Home & Kitchen,Vancouver,Canada,Dorothy,1175,Jones,Consumer,Vancouver State,743 Elm St,14847,50,Home,-21.8525,-155.1059,USCA,New York,United States,1175,0.0,0.0,84.51,0.2352,10,845.1,845.1,198.78,North America,New York Province,Pending,Coffee Maker,84.51,Same Day
Debit,3,2,45.33,3041.46,Delivered,0,4,Sporting Goods,Guangzhou,China,Jennifer,1516,Thomas,Home Office,Guangzhou State,996 Cedar St,36077,40,Sports,14.991,50.9543,Pacific Asia,Hyderabad,India,1516,14.03,0.05,140.33,0.17,2,266.63,266.63,45.33,South Asia,Hyderabad Province,Closed,Fitness Tracker,140.33,First Class
Transfer,9,5,-13.24,2106.07,Delivered,1,6,Health & Beauty,Seoul,South Korea,Susan,1728,Thompson,Home Office,Seoul State,599 Main St,44018,60,Health,-38.8299,-150.1065,Pacific Asia,Hyderabad,India,1728,34.81,0.3,58.02,-0.163,2,81.23,81.23,-13.24,East Asia,Hyderabad Province,Complete,Electric Toothbrush,58.02,Standard Class
Credit,3,2,72.65,7126.36,Processing,0,7,Automotive,Houston,United States,Matthew,1212,Miller,Corporate,Houston State,523 Cedar St,71814,70,Auto Parts,53.4663,80.1847,USCA,Chicago,United States,1212,52.46,0.1,74.94,0.1539,7,472.12,472.12,72.65,North America,Chicago Province,Pending,Jump Starter Kit,74.94,First Class
Debit,1,2,825.46,1059.49,Shipped,0,10,Garden & Tools,Pretoria,South Africa,Susan,1283,Jackson,Corporate,Pretoria State,800 Cedar St,75597,100,Hardware,-40.4032,169.2189,Africa,Tamale,Ghana,1283,0.0,0.0,341.09,0.242,10,3410.9,3410.9,825.46,East Africa,Tamale Province,Pending,Lawn Mower Electric,341.09,First Class
Transfer,6,3,-26.28,1895.14,Delivered,1,8,Books,Cape Town,South Africa,Daniel,1478,Thompson,Consumer,Cape Town State,922 Cedar St,29249,80,Media,-52.7314,-82.1917,Africa,Ibadan,Nigeria,1478,72.24,0.15,48.16,-0.0642,10,409.36,409.36,-26.28,West Africa,Ibadan Province,Complete,Data Science Handbook,48.16,Second Class
Transfer,7,5,-1033.29,1312.63,Delivered,1,2,Technology,Houston,United States,Jennifer,1501,Wilson,Consumer,Houston State,401 Oak St,98724,20,Electronics,31.1529,102.0549,USCA,New York,United States,1501,1609.68,0.25,1073.12,-0.214,6,4829.04,4829.04,-1033.29,North America,New York Province,Complete,Laptop 15in,1073.12,Standard Class
Debit,6,2,-3.55,4856.9,Shipped,1,4,Sporting Goods,Calgary,Canada,Karen,1600,Hill,Consumer,Calgary State,632 Elm St,41179,40,Sports,-31.8064,54.22,USCA,Chicago,United States,1600,37.28,0.15,62.13,-0.0168,4,211.24,211.24,-3.55,North America,Chicago Province,Complete,Bicycle Helmet,62.13,First Class
Debit,1,1,185.5,3797.0,Delivered,0,10,Garden & Tools,Port Elizabeth,South Africa,Donald,1696,Smith,Corporate,Port Elizabeth State,55 Main St,71689,100,Hardware,35.3519,1.4336,Africa,Eldoret,Kenya,1696,78.11,0.05,390.53,0.125,4,1484.01,1484.01,185.5,South Africa,Eldoret Province,Complete,Lawn Mower Electric,390.53,Same Day
Debit,2,2,-42.25,7317.95,Shipped,0,7,Automotive,Suez,Egypt,Ashley,1099,Anderson,Consumer,Suez State,724 Oak St,84946,70,Auto Parts,-10.2138,121.0444,Africa,Suez,Egypt,1099,82.44,0.3,45.8,-0.2196,6,192.36,192.36,-42.25,West Africa,Suez Province,Complete,Tire Inflator,45.8,First Class
Transfer,5,2,4.61,3809.9,Delivered,1,7,Automotive,Toronto,Canada,Richard,1774,Flores,Home Office,Toronto State,872 Oak St,40938,70,Auto Parts,-45.4488,79.7233,USCA,Houston,United States,1774,14.03,0.15,23.38,0.058,4,79.49,79.49,4.61,North America,Houston Province,Complete,Car Phone Mount,23.38,First Class
Transfer,3,2,40.19,5672.27,Delivered,0,8,Books,Ottawa,Canada,Karen,1087,Martin,Corporate,Ottawa State,92 Cedar St,15224,80,Media,55.625,79.7415,USCA,Phoenix,United States,1087,0.0,0.0,31.98,0.2094,6,191.88,191.88,40.19,North America,Phoenix Province,Complete,Python Programming,31.98,First Class
Debit,6,3,227.42,723.71,Delivered,1,3,Apparel,Marseille,France,Christopher,1759,Williams,Home Office,Marseille State,77 Pine St,25003,30,Fashion,-16.1127,-163.2979,Europe,Barcelona,Spain,1759,39.96,0.05,199.82,0.2995,4,759.32,759.32,227.42,Western Europe,Barcelona Province,Pending,Winter Coat,199.82,Second Class
Transfer,1,1,9.45,6765.42,Delivered,0,10,Garden & Tools,Hamburg,Germany,James,1533,Martin,Consumer,Hamburg State,360 Elm St,50838,100,Hardware,42.1443,-0.5454,Europe,Milan,Italy,1533,18.3,0.1,91.5,0.0574,2,164.7,164.7,9.45,Western Europe,Milan Province,Complete,Cordless Drill,91.5,Same Day
Credit,7,5,195.7,3947.64,Delivered,1,5,Home & Kitchen,Córdoba,Argentina,Michael,1698,Thomas,Corporate,Córdoba State,254 Main St,12087,50,Home,2.3718,-66.3556,LATAM,Valparaíso,Chile,1698,0.0,0.0,130.26,0.2146,7,911.82,911.82,195.7,Central America,Valparaíso Province,Closed,Instant Pot,130.26,Standard Class
Debit,5,5,-46.76,4600.83,Delivered,0,2,Technology,Mombasa,Kenya,Anthony,1505,Brown,Consumer,Mombasa State,952 Main St,98580,20,Electronics,64.2514,-2.4939,Africa,Nakuru,Kenya,1505,134.35,0.15,127.95,-0.0614,7,761.3,761.3,-46.76,West Africa,Nakuru Province,Complete,Mechanical Keyboard,127.95,Standard Class
Transfer,2,2,-38.32,4104.98,Shipped,0,10,Garden & Tools,Durban,South Africa,Patricia,1035,Allen,Consumer,Durban State,744 Pine St,36685,100,Hardware,29.3746,119.9904,Africa,Abuja,Nigeria,1035,63.36,0.3,211.19,-0.2592,1,147.83,147.83,-38.32,East Africa,Abuja Province,Complete,Pressure Washer,211.19,First Class
Credit,3,2,92.76,2562.85,Delivered,0,4,Sporting Goods,Seville,Spain,Matthew,1724,Young,Consumer,Seville State,214 Oak St,60039,40,Sports,-22.3698,-3.2009,Europe,Marseille,France,1724,0.0,0.0,97.97,0.3156,3,293.91,293.91,92.76,Northern Europe,Marseille Province,Pending,Running Shoes,97.97,First Class
Debit,5,2,652.21,6673.11,On Hold,1,2,Technology,Shenzhen,China,James,1386,Jackson,Consumer,Shenzhen State,176 Cedar St,38091,20,Electronics,51.4245,50.1092,Pacific Asia,Chennai,India,1386,227.56,0.05,455.11,0.1509,10,4323.55,4323.55,652.21,Oceania,Chennai Province,On Hold,Monitor 27in,455.11,First Class
Debit,3,1,157.33,7394.53,Delivered,1,1,Furniture,Berlin,Germany,Betty,1751,Johnson,Consumer,Berlin State,520 Main St,33474,10,Office Supplies,-10.2577,60.9295,Europe,Toulouse,France,1751,0.0,0.0,281.0,0.2799,2,562.0,562.0,157.33,Southern Europe,Toulouse Province,Complete,Office Chair Pro,281.0,Same Day
Credit,5,5,385.57,1726.6,Delivered,0,10,Garden & Tools,Brasília,Brazil,Sarah,1118,Brown,Consumer,Brasília State,250 Cedar St,27781,100,Hardware,-9.476,-43.8561,LATAM,Córdoba,Argentina,1118,0.0,0.0,180.96,0.2663,8,1447.68,1447.68,385.57,South America,Córdoba Province,Pending,Pressure Washer,180.96,Standard Class
Credit,4,3,25.02,3004.58,Delivered,1,8,Books,Madrid,Spain,Charles,1231,Harris,Home Office,Madrid State,730 Pine St,20237,80,Media,59.2418,-131.849,Europe,Hamburg,Germany,1231,9.31,0.05,26.61,0.1414,7,176.96,176.96,25.02,Western Europe,Hamburg Province,Complete,Business Strategy,26.61,Second Class
Credit,1,1,-117.0,3534.59,On Hold,0,10,Garden & Tools,Liverpool,United Kingdom,Susan,1074,Martin,Home Office,Liverpool State,553 Pine St,65771,100,Hardware,69.5621,17.1321,Europe,Paris,France,1074,187.97,0.3,156.64,-0.2668,4,438.59,438.59,-117.0,Southern Europe,Paris Province,Closed,Tool Set 128pc,156.64,Same Day
Debit,6,3,-18.02,5685.53,Delivered,1,2,Technology,Kumasi,Ghana,Anthony,1081,Thompson,Corporate,Kumasi State,471 Elm St,48974,20,Electronics,51.8217,166.6106,Africa,Kisumu,Kenya,1081,36.06,0.15,120.2,-0.0882,2,204.34,204.34,-18.02,East Africa,Kisumu Province,Complete,Mechanical Keyboard,120.2,Second Class
Debit,1,2,116.0,5295.21,Processing,0,3,Apparel,Birmingham,United Kingdom,Susan,1077,Garcia,Corporate,Birmingham State,24 Cedar St,26591,30,Fashion,-24.3395,161.2603,Europe,Seville,Spain,1077,60.46,0.1,67.18,0.2132,9,544.16,544.16,116.0,Southern Europe,Seville Province,Complete,Casual Sneakers,67.18,First Class
Debit,3,2,41.17,2897.6,Delivered,0,6,Health & Beauty,Phoenix,United States,Patricia,1268,Hill,Consumer,Phoenix State,740 Main St,20752,60,Health,-25.1636,-40.8,USCA,Toronto,Canada,1268,0.0,0.0,37.05,0.3704,3,111.15,111.15,41.17,North America,Toronto Province,Complete,Protein Powder 2lb,37.05,First Class
Credit,4,3,117.5,5272.63,Delivered,1,7,Automotive,Kano,Nigeria,Richard,1758,Brown,Corporate,Kano State,363 Pine St,63992,70,Auto Parts,-14.335,54.8216,Africa,Luxor,Egypt,1758,0.0,0.0,41.07,0.3179,9,369.63,369.63,117.5,West Africa,Luxor Province,Complete,Car Vacuum,41.07,Second Class
Transfer,3,3,5.76,6172.32,Delivered,0,8,Books,Port Harcourt,Nigeria,Thomas,1234,Wright,Corporate,Port Harcourt State,750 Main St,61897,80,Media,-26.9206,-168.9747,Africa,Cairo,Egypt,1234,0.0,0.0,25.35,0.2274,1,25.35,25.35,5.76,East Africa,Cairo Province,Closed,Business Strategy,25.35,Second Class
Debit,2,2,21.84,4791.22,Shipped,0,3,Apparel,Phoenix,United States,Richard,1719,Miller,Corporate,Phoenix State,335 Cedar St,89308,30,Fashion,6.5023,-150.9438,USCA,Los Angeles,United States,1719,4.53,0.05,45.3,0.2538,2,86.07,86.07,21.84,North America,Los Angeles Province,Complete,Formal Shirt,45.3,First Class
Debit,9,5,49.95,4898.84,Delivered,1,7,Automotive,Pretoria,South Africa,Ashley,1582,Nguyen,Consumer,Pretoria State,681 Cedar St,30715,70,Auto Parts,-18.7255,19.4957,Africa,Kano,Nigeria,1582,0.0,0.0,35.55,0.3513,4,142.2,142.2,49.95,East Africa,Kano Province,Complete,Car Vacuum,35.55,Standard Class
Credit,4,3,41.09,6285.63,Delivered,0,5,Home & Kitchen,Kano,Nigeria,Thomas,1621,Adams,Consumer,Kano State,115 Cedar St,96374,50,Home,36.9221,-162.3567,Africa,Giza,Egypt,1621,0.0,0.0,98.95,0.2076,2,197.9,197.9,41.09,East Africa,Giza Province,Complete,Air Fryer,98.95,Second Class
Transfer,2,1,41.56,6763.12,Shipped,0,4,Sporting Goods,Palermo,Italy,Lisa,1274,Miller,Corporate,Palermo State,119 Oak St,49932,40,Sports,-59.1202,-35.4647,Europe,Hamburg,Germany,1274,0.0,0.0,145.98,0.2847,1,145.98,145.98,41.56,Western Europe,Hamburg Province,Complete,Fitness Tracker,145.98,Same Day
Credit,5,3,190.84,6723.34,Shipped,1,4,Sporting Goods,Guangzhou,China,Nancy,1760,Green,Corporate,Guangzhou State,591 Cedar St,65203,40,Sports,-25.3395,66.6259,Pacific Asia,Shanghai,China,1760,0.0,0.0,98.63,0.3225,6,591.78,591.78,190.84,South Asia,Shanghai Province,Pending,Running Shoes,98.63,Second Class
Transfer,1,1,28.67,3158.75,Shipped,0,5,Home & Kitchen,Giza,Egypt,Charles,1394,Taylor,Consumer,Giza State,870 Cedar St,33741,50,Home,-21.8081,-9.9345,Africa,Abuja,Nigeria,1394,0.0,0.0,125.79,0.2279,1,125.79,125.79,28.67,West Africa,Abuja Province,Pending,Instant Pot,125.79,Same Day
Transfer,5,5,129.47,5861.13,Delivered,0,7,Automotive,Nakuru,Kenya,Lisa,1054,Flores,Home Office,Nakuru State,923 Cedar St,65933,70,Auto Parts,47.974,16.2765,Africa,Johannesburg,South Africa,1054,0.0,0.0,41.54,0.3463,9,373.86,373.86,129.47,East Africa,Johannesburg Province,On Hold,Car Vacuum,41.54,Standard Class
Credit,3,2,36.09,1467.88,Shipped,0,7,Automotive,Mendoza,Argentina,Charles,1747,Wright,Home Office,Mendoza State,97 Main St,28791,70,Auto Parts,-8.6745,66.3126,LATAM,Antofagasta,Chile,1747,0.0,0.0,55.47,0.3253,2,110.94,110.94,36.09,Central America,Antofagasta Province,Complete,Tire Inflator,55.47,First Class
Credit,3,3,-24.02,2339.31,Delivered,0,8,Books,Accra,Ghana,Lisa,1136,Nelson,Home Office,Accra State,859 Pine St,13794,80,Media,-36.5459,68.9176,Africa,Cairo,Egypt,1136,38.03,0.15,50.71,-0.1114,5,215.52,215.52,-24.02,South Africa,Cairo Province,On Hold,Data Science Handbook,50.71,Second Class
Transfer,1,1,-36.15,5174.4,Delivered,0,5,Home & Kitchen,Ottawa,Canada,William,1013,Moore,Consumer,Ottawa State,706 Main St,99353,50,Home,55.0225,85.2985,USCA,Chicago,United States,1013,120.11,0.2,120.11,-0.0752,5,480.44,480.44,-36.15,North America,Chicago Province,Pending,Instant Pot,120.11,Same Day
Transfer,2,2,97.61,1192.34,Delivered,0,4,Sporting Goods,Houston,United States,Ashley,1060,Jones,Home Office,Houston State,556 Main St,61645,40,Sports,16.9461,55.4199,USCA,Montreal,Canada,1060,0.0,0.0,57.47,0.3397,5,287.35,287.35,97.61,North America,Montreal Province,Complete,Bicycle Helmet,57.47,First Class
Transfer,3,3,42.27,674.34,On Hold,0,3,Apparel,Chicago,United States,David,1633,Flores,Home Office,Chicago State,615 Elm St,67062,30,Fashion,13.7375,-53.6517,USCA,Phoenix,United States,1633,25.32,0.1,126.62,0.1855,2,227.92,227.92,42.27,North America,Phoenix Province,Complete,Women's Blazer,126.62,Second Class
Credit,4,3,-46.85,2048.43,Processing,1,5,Home & Kitchen,Lagos,Nigeria,Betty,1017,Martin,Consumer,Lagos State,788 Cedar St,26483,50,Home,-43.3091,-8.404,Africa,Port Harcourt,Nigeria,1017,132.84,0.2,73.8,-0.0882,9,531.36,531.36,-46.85,West Africa,Port Harcourt Province,Pending,Blender Pro,73.8,Second Class
Debit,2,2,-184.07,5050.95,Delivered,0,10,Garden & Tools,Córdoba,Argentina,Michael,1698,Thomas,Corporate,Córdoba State,254 Main St,12087,100,Hardware,2.3718,-66.3556,LATAM,Barranquilla,Colombia,1698,249.74,0.25,199.79,-0.2457,5,749.21,749.21,-184.07,Central America,Barranquilla Province,Complete,Pressure Washer,199.79,First Class
Debit,3,2,20.48,6679.67,Processing,0,6,Health & Beauty,London,United Kingdom,Thomas,1298,Wilson,Corporate,London State,892 Main St,67549,60,Health,52.4878,-130.0888,Europe,Birmingham,United Kingdom,1298,0.0,0.0,24.92,0.4109,2,49.84,49.84,20.48,Southern Europe,Birmingham Province,On Hold,Vitamin C 1000mg,24.92,First Class
Transfer,4,3,40.96,6426.0,Processing,0,3,Apparel,Mumbai,India,Ashley,1781,Flores,Consumer,Mumbai State,314 Oak St,31001,30,Fashion,59.0658,44.6599,Pacific Asia,Sydney,Australia,1781,0.0,0.0,51.73,0.3959,2,103.46,103.46,40.96,Oceania,Sydney Province,Complete,Formal Shirt,51.73,Second Class
Debit,2,2,-4.75,6035.87,Delivered,0,8,Books,Hamburg,Germany,James,1533,Martin,Consumer,Hamburg State,360 Elm St,50838,80,Media,42.1443,-0.5454,Europe,Toulouse,France,1533,23.03,0.15,38.39,-0.0364,4,130.53,130.53,-4.75,Southern Europe,Toulouse Province,Complete,Finance Fundamentals,38.39,First Class
Debit,6,5,-54.15,1992.15,Shipped,0,4,Sporting Goods,Berlin,Germany,Betty,1751,Johnson,Consumer,Berlin State,520 Main St,33474,40,Sports,-10.2577,60.9295,Europe,Toulouse,France,1751,94.0,0.25,62.67,-0.192,6,282.01,282.01,-54.15,Southern Europe,Toulouse Province,On Hold,Bicycle Helmet,62.67,Standard Class
Transfer,3,2,75.19,4692.89,Delivered,1,9,Toys & Games,Madrid,Spain,Christopher,1796,Garcia,Corporate,Madrid State,183 Cedar St,74597,90,Toys,60.9425,128.4849,Europe,Palermo,Italy,1796,25.37,0.05,50.73,0.156,10,481.93,481.93,75.19,Western Europe,Palermo Province,Complete,Board Game Premium,50.73,First Class
Transfer,1,1,225.55,1232.55,Delivered,0,4,Sporting Goods,Daejeon,South Korea,Jennifer,1465,Garcia,Home Office,Daejeon State,631 Main St,46780,40,Sports,51.6328,-122.3994,Pacific Asia,Beijing,China,1465,0.0,0.0,116.6,0.2763,7,816.2,816.2,225.55,East Asia,Beijing Province,Complete,Dumbbells Set,116.6,Same Day
Transfer,3,2,20.94,7303.26,Delivered,0,7,Automotive,Bogotá,Colombia,John,1363,Wilson,Consumer,Bogotá State,85 Pine St,32296,70,Auto Parts,55.4311,-115.2925,LATAM,Brasília,Brazil,1363,22.83,0.1,45.66,0.1019,5,205.47,205.47,20.94,Central America,Brasília Province,Complete,Tire Inflator,45.66,First Class
Debit,6,5,9.04,2699.41,On Hold,1,8,Books,Brisbane,Australia,Karen,1297,Flores,Consumer,Brisbane State,788 Elm St,81611,80,Media,-31.5895,-25.4474,Pacific Asia,Hyderabad,India,1297,3.6,0.05,23.97,0.1324,3,68.31,68.31,9.04,South Asia,Hyderabad Province,On Hold,Leadership 101,23.97,Standard Class
Debit,6,2,112.36,7637.41,Delivered,1,9,Toys & Games,Perth,Australia,Thomas,1287,Davis,Corporate,Perth State,654 Oak St,34430,90,Toys,23.2623,-23.0743,Pacific Asia,Incheon,South Korea,1287,0.0,0.0,112.48,0.2497,4,449.92,449.92,112.36,East Asia,Incheon Province,Complete,Educational Tablet,112.48,First Class
Credit,6,3,-6.42,7525.8,Shipped,1,4,Sporting Goods,Frankfurt,Germany,James,1532,Garcia,Consumer,Frankfurt State,298 Pine St,26389,40,Sports,32.9755,77.2164,Europe,Lyon,France,1532,21.33,0.2,53.33,-0.0753,2,85.33,85.33,-6.42,Southern Europe,Lyon Province,Pending,Bicycle Helmet,53.33,Second Class
Debit,4,3,24.21,6693.54,Processing,1,10,Garden & Tools,London,United Kingdom,Linda,1238,Moore,Corporate,London State,551 Oak St,39188,100,Hardware,48.5268,87.101,Europe,Paris,France,1238,10.56,0.05,105.59,0.1207,2,200.62,200.62,24.21,Southern Europe,Paris Province,Closed,Cordless Drill,105.59,Second Class
Debit,2,1,-14.69,877.54,Delivered,1,6,Health & Beauty,Santiago,Chile,Dorothy,1289,Green,Home Office,Santiago State,201 Pine St,52727,60,Health,-34.3803,-131.2553,LATAM,Mendoza,Argentina,1289,102.2,0.25,51.1,-0.0479,8,306.6,306.6,-14.69,Central America,Mendoza Province,Pending,Face Serum,51.1,Same Day
Transfer,3,2,8.25,1685.11,Delivered,1,5,Home & Kitchen,Bogotá,Colombia,John,1363,Wilson,Consumer,Bogotá State,85 Pine St,32296,50,Home,55.4311,-115.2925,LATAM,Buenos Aires,Argentina,1363,17.39,0.1,86.97,0.0527,2,156.55,156.55,8.25,Central America,Buenos Aires Province,Complete,Coffee Maker,86.97,First Class
Debit,2,2,-127.93,5151.23,Delivered,0,1,Furniture,Cape Town,South Africa,James,1252,Wilson,Home Office,Cape Town State,967 Cedar St,85909,10,Office Supplies,33.6016,-69.6346,Africa,Mombasa,Kenya,1252,279.33,0.25,279.33,-0.1527,4,837.99,837.99,-127.93,West Africa,Mombasa Province,Pending,Office Chair Pro,279.33,First Class
Transfer,6,3,-74.03,2919.89,On Hold,1,9,Toys & Games,Marseille,France,Jennifer,1004,Williams,Corporate,Marseille State,109 Pine St,55082,90,Toys,18.4844,104.4236,Europe,Barcelona,Spain,1004,122.55,0.3,45.39,-0.2589,9,285.96,285.96,-74.03,Northern Europe,Barcelona Province,Complete,Board Game Premium,45.39,Second Class
Credit,2,1,-65.29,7710.77,Shipped,0,3,Apparel,London,United Kingdom,Linda,1238,Moore,Corporate,London State,551 Oak St,39188,30,Fashion,48.5268,87.101,Europe,Hamburg,Germany,1238,174.53,0.3,72.72,-0.1603,8,407.23,407.23,-65.29,Western Europe,Hamburg Province,Complete,Casual Sneakers,72.72,Same Day
Debit,2,2,-11.48,5560.33,Shipped,0,7,Automotive,Toronto,Canada,Michael,1334,Scott,Corporate,Toronto State,105 Main St,40339,70,Auto Parts,56.6474,6.7181,USCA,Calgary,Canada,1334,23.57,0.25,47.13,-0.1624,2,70.7,70.7,-11.48,North America,Calgary Province,Complete,Tire Inflator,47.13,First Class
Debit,5,2,-9.56,2233.46,Shipped,1,5,Home & Kitchen,Ottawa,Canada,Charles,1520,Harris,Corporate,Ottawa State,181 Oak St,13027,50,Home,-43.7448,-90.2268,USCA,Calgary,Canada,1520,16.45,0.25,65.81,-0.1938,1,49.36,49.36,-9.56,North America,Calgary Province,Complete,Blender Pro,65.81,First Class
Transfer,2,3,64.26,1207.88,Processing,0,5,Home & Kitchen,New York,United States,Donald,1746,Flores,Corporate,New York State,971 Pine St,33500,50,Home,-58.3378,59.214,USCA,Phoenix,United States,1746,0.0,0.0,52.51,0.2448,5,262.55,262.55,64.26,North America,Phoenix Province,Complete,Knife Set,52.51,Second Class
Debit,6,5,-70.59,6905.84,Delivered,0,1,Furniture,Vancouver,Canada,Thomas,1389,Taylor,Home Office,Vancouver State,543 Cedar St,62055,10,Office Supplies,15.9833,-167.5018,USCA,Los Angeles,United States,1389,331.02,0.2,275.85,-0.0533,6,1324.08,1324.08,-70.59,North America,Los Angeles Province,Complete,Office Chair Pro,275.85,Standard Class
Credit,6,5,73.56,529.82,Processing,1,5,Home & Kitchen,Zaragoza,Spain,James,1383,Garcia,Consumer,Zaragoza State,906 Oak St,17553,50,Home,-27.5663,-14.8075,Europe,Seville,Spain,1383,87.57,0.1,97.3,0.0933,9,788.13,788.13,73.56,Southern Europe,Seville Province,Complete,Air Fryer,97.3,Standard Class
Transfer,5,5,3.55,776.34,Shipped,0,5,Home & Kitchen,Buenos Aires,Argentina,Patricia,1236,White,Consumer,Buenos Aires State,797 Oak St,94085,50,Home,67.1833,49.5995,LATAM,Bogotá,Colombia,1236,8.36,0.1,83.57,0.0472,1,75.21,75.21,3.55,South America,Bogotá Province,Complete,Coffee Maker,83.57,Standard Class
Debit,4,1,13.08,2337.59,Delivered,1,7,Automotive,Concepción,Chile,Sarah,1016,Smith,Consumer,Concepción State,961 Pine St,50306,70,Auto Parts,-28.8712,-88.1037,LATAM,Santiago,Chile,1016,2.71,0.05,27.14,0.2536,2,51.57,51.57,13.08,Central America,Santiago Province,Complete,Car Phone Mount,27.14,Same Day
Credit,4,3,-73.32,3182.79,Delivered,0,2,Technology,Córdoba,Argentina,Patricia,1672,Scott,Corporate,Córdoba State,927 Main St,92656,20,Electronics,29.5495,-4.5888,LATAM,Cartagena,Colombia,1672,103.1,0.25,82.48,-0.237,5,309.3,309.3,-73.32,South America,Cartagena Province,Pending,USB-C Hub,82.48,Second Class
Credit,4,5,167.33,5213.98,Shipped,0,7,Automotive,Chicago,United States,Sandra,1782,Williams,Corporate,Chicago State,492 Elm St,53610,70,Auto Parts,33.2602,128.0988,USCA,Ottawa,Canada,1782,0.0,0.0,71.53,0.2924,8,572.24,572.24,167.33,North America,Ottawa Province,Complete,Jump Starter Kit,71.53,Standard Class
Credit,9,5,119.55,2165.79,Processing,1,3,Apparel,Adelaide,Australia,Nancy,1098,Martin,Consumer,Adelaide State,467 Cedar St,73483,30,Fashion,-15.1339,17.6519,Pacific Asia,Tokyo,Japan,1098,74.06,0.1,92.58,0.1793,8,666.58,666.58,119.55,South Asia,Tokyo Province,On Hold,Men's Jacket,92.58,Standard Class
Credit,3,3,-2.42,3798.7,Processing,0,6,Health & Beauty,Madrid,Spain,Mark,1038,Thomas,Home Office,Madrid State,575 Oak St,66333,60,Health,-43.4321,-65.1922,Europe,Birmingham,United Kingdom,1038,11.03,0.25,44.12,-0.0732,1,33.09,33.09,-2.42,Southern Europe,Birmingham Province,Pending,Face Serum,44.12,Second Class
Debit,4,5,59.69,3613.29,Delivered,0,9,Toys & Games,Kano,Nigeria,Richard,1758,Brown,Corporate,Kano State,363 Pine St,63992,90,Toys,-14.335,54.8216,Africa,Abuja,Nigeria,1758,0.0,0.0,113.67,0.2626,2,227.34,227.34,59.69,West Africa,Abuja Province,Closed,Educational Tablet,113.67,Standard Class
Credit,1,1,-74.0,2714.61,Delivered,0,1,Furniture,Suez,Egypt,Karen,1508,Johnson,Home Office,Suez State,365 Elm St,99959,10,Office Supplies,40.8675,-14.5533,Africa,Kisumu,Kenya,1508,134.9,0.3,149.89,-0.2351,3,314.77,314.77,-74.0,South Africa,Kisumu Province,Complete,Filing Cabinet,149.89,Same Day
Debit,2,2,41.43,5817.02,Shipped,0,10,Garden & Tools,Fukuoka,Japan,Thomas,1145,Flores,Home Office,Fukuoka State,951 Pine St,21551,100,Hardware,-3.2275,-134.0065,Pacific Asia,Nagoya,Japan,1145,43.76,0.1,43.76,0.1052,10,393.84,393.84,41.43,Oceania,Nagoya Province,Pending,Garden Hose 50ft,43.76,First Class
Debit,2,3,397.23,2782.07,Delivered,0,3,Apparel,Vancouver,Canada,Jennifer,1733,Miller,Consumer,Vancouver State,525 Oak St,34696,30,Fashion,43.3639,19.9428,USCA,New York,United States,1733,0.0,0.0,193.79,0.3416,6,1162.74,1162.74,397.23,North America,New York Province,Complete,Winter Coat,193.79,Second Class
Credit,1,2,-192.71,3064.74,Delivered,0,10,Garden & Tools,Phoenix,United States,Barbara,1609,Scott,Corporate,Phoenix State,208 Main St,25493,100,Hardware,-56.8817,42.6567,USCA,Ottawa,Canada,1609,589.95,0.2,327.75,-0.0817,9,2359.8,2359.8,-192.71,North America,Ottawa Province,Complete,Lawn Mower Electric,327.75,First Class
Transfer,5,5,19.52,6415.7,Delivered,0,5,Home & Kitchen,Giza,Egypt,Donald,1555,Anderson,Home Office,Giza State,342 Pine St,64046,50,Home,39.344,-23.6001,Africa,Accra,Ghana,1555,27.36,0.1,136.79,0.0793,2,246.22,246.22,19.52,West Africa,Accra Province,Complete,Instant Pot,136.79,Standard Class
Credit,2,1,42.86,1318.0,Delivered,1,7,Automotive,Daejeon,South Korea,Betty,1590,Young,Home Office,Daejeon State,559 Cedar St,94068,70,Auto Parts,53.8518,97.5528,Pacific Asia,Chengdu,China,1590,113.13,0.15,75.42,0.0668,10,641.07,641.07,42.86,East Asia,Chengdu Province,Complete,Jump Starter Kit,75.42,Same Day
Credit,1,1,179.19,4569.13,Delivered,0,1,Furniture,Guadalajara,Mexico,Dorothy,1080,Young,Corporate,Guadalajara State,97 Oak St,25525,10,Office Supplies,12.5495,-28.5008,LATAM,Santiago,Chile,1080,0.0,0.0,212.43,0.2812,3,637.29,637.29,179.19,South America,Santiago Province,Complete,Bookshelf Unit,212.43,Same Day
Credit,4,3,-28.35,4022.73,Delivered,0,7,Automotive,Santiago,Chile,John,1364,Allen,Home Office,Santiago State,924 Elm St,14062,70,Auto Parts,-3.928,52.236,LATAM,La Plata,Argentina,1364,86.26,0.2,47.92,-0.0822,9,345.02,345.02,-28.35,Central America,La Plata Province,Complete,Tire Inflator,47.92,Second Class
Debit,1,1,21.7,3183.17,Shipped,0,2,Technology,Palermo,Italy,Karen,1446,Jackson,Consumer,Palermo State,367 Oak St,37964,20,Electronics,26.2335,-57.4374,Europe,Zaragoza,Spain,1446,6.86,0.05,137.13,0.1666,1,130.27,130.27,21.7,Western Europe,Zaragoza Province,Complete,Mechanical Keyboard,137.13,Same Day
Credit,5,2,53.15,461.52,Delivered,1,1,Furniture,Valparaíso,Chile,Ashley,1453,Wilson,Corporate,Valparaíso State,407 Elm St,92603,10,Office Supplies,-7.4218,-62.4226,LATAM,Fortaleza,Brazil,1453,54.37,0.1,543.65,0.1086,1,489.28,489.28,53.15,Central America,Fortaleza Province,Closed,Standing Desk,543.65,First Class
Transfer,5,5,-6.17,6049.5,On Hold,0,8,Books,Accra,Ghana,Richard,1045,Adams,Home Office,Accra State,204 Pine St,15817,80,Media,32.1421,-169.425,Africa,Alexandria,Egypt,1045,18.96,0.15,25.28,-0.0575,5,107.44,107.44,-6.17,East Africa,Alexandria Province,Pending,Leadership 101,25.28,Standard Class
Credit,4,3,36.23,6891.54,Delivered,1,9,Toys & Games,Cape Town,South Africa,Sandra,1040,Garcia,Consumer,Cape Town State,912 Elm St,13248,90,Toys,-36.6831,144.3257,Africa,Kano,Nigeria,1040,8.78,0.05,58.55,0.2171,3,166.87,166.87,36.23,West Africa,Kano Province,Pending,LEGO City Set,58.55,Second Class
Transfer,3,2,-6.28,6635.37,Shipped,0,4,Sporting Goods,Calgary,Canada,Karen,1756,Green,Consumer,Calgary State,528 Main St,61299,40,Sports,-25.7592,30.9553,USCA,New York,United States,1756,80.83,0.2,134.72,-0.0194,3,323.33,323.33,-6.28,North America,New York Province,Complete,Fitness Tracker,134.72,First Class
Transfer,2,1,110.6,2863.33,Delivered,1,3,Apparel,Liverpool,United Kingdom,Betty,1086,Flores,Home Office,Liverpool State,953 Pine St,67560,30,Fashion,-43.834,64.1505,Europe,Valencia,Spain,1086,0.0,0.0,61.3,0.3609,5,306.5,306.5,110.6,Western Europe,Valencia Province,Complete,Casual Sneakers,61.3,Same Day
Transfer,4,3,86.69,833.94,Delivered,1,2,Technology,Phoenix,United States,Donald,1475,Jones,Corporate,Phoenix State,179 Oak St,20104,20,Electronics,6.8904,-74.5248,USCA,Chicago,United States,1475,0.0,0.0,118.94,0.243,3,356.82,356.82,86.69,North America,Chicago Province,Complete,Mechanical Keyboard,118.94,Second Class
Debit,1,1,27.49,1962.49,Delivered,0,4,Sporting Goods,Córdoba,Argentina,Michael,1698,Thomas,Corporate,Córdoba State,254 Main St,12087,40,Sports,2.3718,-66.3556,LATAM,Concepción,Chile,1698,30.23,0.1,100.76,0.101,3,272.05,272.05,27.49,Central America,Concepción Province,Complete,Running Shoes,100.76,Same Day
Transfer,1,1,-33.56,7607.39,Delivered,0,5,Home & Kitchen,Hamburg,Germany,Sandra,1182,Allen,Home Office,Hamburg State,810 Elm St,14561,50,Home,-43.5901,-89.7616,Europe,Milan,Italy,1182,136.01,0.15,113.34,-0.0435,8,770.71,770.71,-33.56,Western Europe,Milan Province,Closed,Air Fryer,113.34,Same Day
Debit,5,2,-48.17,3847.97,Delivered,1,7,Automotive,Concepción,Chile,Charles,1551,Johnson,Home Office,Concepción State,82 Pine St,20215,70,Auto Parts,62.7985,156.5995,LATAM,Monterrey,Mexico,1551,139.12,0.25,92.75,-0.1154,6,417.38,417.38,-48.17,South America,Monterrey Province,Closed,Dash Cam HD,92.75,First Class
Debit,2,2,-92.63,6980.77,On Hold,0,2,Technology,Buenos Aires,Argentina,David,1675,Hill,Home Office,Buenos Aires State,693 Cedar St,70079,20,Electronics,62.2117,125.868,LATAM,Bogotá,Colombia,1675,122.8,0.3,136.45,-0.3233,3,286.54,286.54,-92.63,Central America,Bogotá Province,Complete,Mechanical Keyboard,136.45,First Class
Credit,4,2,51.97,5901.45,Delivered,1,3,Apparel,Antofagasta,Chile,Jennifer,1487,Thompson,Consumer,Antofagasta State,394 Oak St,51405,30,Fashion,-6.8501,-133.7617,LATAM,La Serena,Chile,1487,0.0,0.0,44.27,0.3913,3,132.81,132.81,51.97,Central America,La Serena Province,Pending,Formal Shirt,44.27,First Class
Credit,4,2,-25.45,7641.06,Processing,1,4,Sporting Goods,Port Harcourt,Nigeria,David,1741,Scott,Consumer,Port Harcourt State,997 Pine St,32514,40,Sports,57.2158,12.623,Africa,Suez,Egypt,1741,150.98,0.2,94.36,-0.0421,8,603.9,603.9,-25.45,East Africa,Suez Province,Complete,Running Shoes,94.36,First Class
Debit,4,3,14.3,2612.33,Delivered,0,10,Garden & Tools,Houston,United States,Thomas,1168,Allen,Consumer,Houston State,937 Main St,12490,100,Hardware,-26.7299,113.8875,USCA,Toronto,Canada,1168,152.67,0.15,101.78,0.0165,10,865.13,865.13,14.3,North America,Toronto Province,Complete,Cordless Drill,101.78,Second Class
Debit,4,3,40.75,5848.25,Delivered,1,6,Health & Beauty,Rosario,Argentina,Anthony,1406,Moore,Home Office,Rosario State,59 Cedar St,16286,60,Health,26.0561,52.213,LATAM,Puebla,Mexico,1406,0.0,0.0,36.71,0.37,3,110.13,110.13,40.75,South America,Puebla Province,Complete,Protein Powder 2lb,36.71,Second Class
Debit,1,1,-11.97,1202.32,Shipped,0,9,Toys & Games,Monterrey,Mexico,Robert,1006,Green,Consumer,Monterrey State,897 Main St,59823,90,Toys,-23.8634,46.1327,LATAM,Mexico City,Mexico,1006,32.21,0.2,80.53,-0.0929,2,128.85,128.85,-11.97,Central America,Mexico City Province,Pending,RC Car,80.53,Same Day
Transfer,6,5,-80.4,3025.79,Delivered,1,7,Automotive,Ottawa,Canada,Richard,1290,Allen,Corporate,Ottawa State,611 Main St,55603,70,Auto Parts,-14.242,-14.3274,USCA,Los Angeles,United States,1290,190.6,0.25,76.24,-0.1406,10,571.8,571.8,-80.4,North America,Los Angeles Province,On Hold,Jump Starter Kit,76.24,Standard Class
Credit,6,3,953.82,3520.55,Shipped,1,1,Furniture,Phoenix,United States,Patricia,1614,Young,Home Office,Phoenix State,704 Pine St,82768,10,Office Supplies,9.6651,-99.1908,USCA,Calgary,Canada,1614,0.0,0.0,978.04,0.2438,4,3912.16,3912.16,953.82,North America,Calgary Province,Complete,Conference Table,978.04,Second Class
Debit,5,1,89.92,5551.31,Processing,1,5,Home & Kitchen,Chicago,United States,William,1692,Miller,Corporate,Chicago State,140 Main St,84536,50,Home,-52.2453,-123.5895,USCA,Toronto,Canada,1692,0.0,0.0,60.79,0.2959,5,303.95,303.95,89.92,North America,Toronto Province,Complete,Knife Set,60.79,Same Day
Credit,1,1,-26.28,6495.58,Delivered,0,7,Automotive,Glasgow,United Kingdom,Donald,1165,Thompson,Consumer,Glasgow State,860 Elm St,22021,70,Auto Parts,63.0337,-94.5071,Europe,London,United Kingdom,1165,48.98,0.25,24.49,-0.1788,8,146.94,146.94,-26.28,Northern Europe,London Province,Complete,Car Phone Mount,24.49,Same Day
Transfer,5,5,-24.8,2829.5,Processing,0,9,Toys & Games,Los Angeles,United States,Michael,1800,Johnson,Consumer,Los Angeles State,197 Main St,71636,90,Toys,-26.1709,70.0274,USCA,Los Angeles,United States,1800,144.81,0.2,80.45,-0.0428,9,579.24,579.24,-24.8,North America,Los Angeles Province,Complete,RC Car,80.45,Standard Class
Credit,6,2,-346.23,2168.15,Shipped,1,10,Garden & Tools,Ottawa,Canada,James,1203,Green,Consumer,Ottawa State,451 Oak St,44664,100,Hardware,34.576,89.7113,USCA,Phoenix,United States,1203,429.91,0.3,204.72,-0.3451,7,1003.13,1003.13,-346.23,North America,Phoenix Province,Complete,Pressure Washer,204.72,First Class
Debit,2,1,-11.02,5961.71,On Hold,1,5,Home & Kitchen,Melbourne,Australia,Christopher,1556,Moore,Consumer,Melbourne State,394 Cedar St,43303,50,Home,-13.1989,-16.1828,Pacific Asia,Mumbai,India,1556,68.74,0.15,76.38,-0.0283,6,389.54,389.54,-11.02,Oceania,Mumbai Province,Complete,Coffee Maker,76.38,Same Day
Debit,6,2,158.12,2747.39,On Hold,1,3,Apparel,New York,United States,Maria,1548,Young,Home Office,New York State,866 Elm St,96235,30,Fashion,3.6883,42.15,USCA,Toronto,Canada,1548,32.88,0.05,82.2,0.2531,8,624.72,624.72,158.12,North America,Toronto Province,Complete,Men's Jacket,82.2,First Class
Transfer,8,5,455.87,5828.43,Shipped,1,3,Apparel,Tijuana,Mexico,Sandra,1742,Scott,Corporate,Tijuana State,385 Cedar St,34264,30,Fashion,-2.8434,155.6342,LATAM,Rio de Janeiro,Brazil,1742,0.0,0.0,185.4,0.3513,7,1297.8,1297.8,455.87,Central America,Rio de Janeiro Province,Complete,Winter Coat,185.4,Standard Class
Transfer,2,3,-71.6,2343.34,Delivered,0,2,Technology,Toronto,Canada,Matthew,1120,Thomas,Consumer,Toronto State,464 Elm St,40947,20,Electronics,51.2085,-136.2194,USCA,Vancouver,Canada,1120,328.7,0.15,438.27,-0.0384,5,1862.65,1862.65,-71.6,North America,Vancouver Province,On Hold,Monitor 27in,438.27,Second Class
Transfer,4,2,-12.83,3807.04,Delivered,1,3,Apparel,Chennai,India,Sandra,1514,Young,Consumer,Chennai State,417 Main St,31409,30,Fashion,-52.1953,106.6981,Pacific Asia,Nagoya,Japan,1514,52.06,0.25,69.41,-0.0822,3,156.17,156.17,-12.83,South Asia,Nagoya Province,Complete,Casual Sneakers,69.41,First Class
Credit,3,2,-0.24,4423.37,Shipped,0,6,Health & Beauty,Munich,Germany,Richard,1227,Davis,Corporate,Munich State,781 Pine St,53204,60,Health,-20.747,75.7801,Europe,Palermo,Italy,1227,16.83,0.2,21.04,-0.0036,4,67.33,67.33,-0.24,Southern Europe,Palermo Province,On Hold,Vitamin C 1000mg,21.04,First Class
Debit,3,1,-46.43,6847.88,Shipped,1,9,Toys & Games,Sydney,Australia,Matthew,1352,Scott,Corporate,Sydney State,980 Cedar St,83873,90,Toys,-41.5267,152.4453,Pacific Asia,Seoul,South Korea,1352,92.99,0.2,58.12,-0.1248,8,371.97,371.97,-46.43,Oceania,Seoul Province,Complete,LEGO City Set,58.12,Same Day
Transfer,2,2,-25.31,5069.27,Delivered,0,8,Books,Cartagena,Colombia,David,1354,Hill,Consumer,Cartagena State,358 Oak St,52413,80,Media,-52.2577,-119.7779,LATAM,Antofagasta,Chile,1354,34.99,0.2,34.99,-0.1808,5,139.96,139.96,-25.31,South America,Antofagasta Province,Complete,Finance Fundamentals,34.99,First Class
Debit,4,3,25.27,3286.85,Delivered,0,7,Automotive,Rio de Janeiro,Brazil,Daniel,1784,Harris,Home Office,Rio de Janeiro State,149 Main St,62515,70,Auto Parts,-33.9902,-66.1138,LATAM,Santiago,Chile,1784,59.93,0.15,44.39,0.0744,9,339.58,339.58,25.27,South America,Santiago Province,Complete,Tire Inflator,44.39,Second Class
Transfer,2,2,109.41,1023.98,On Hold,0,2,Technology,Brisbane,Australia,Karen,1297,Flores,Consumer,Brisbane State,788 Elm St,81611,20,Electronics,-31.5895,-25.4474,Pacific Asia,Bangalore,India,1297,42.65,0.05,121.86,0.135,7,810.37,810.37,109.41,Oceania,Bangalore Province,Complete,Mechanical Keyboard,121.86,First Class
Credit,5,1,127.14,4354.79,Delivered,1,6,Health & Beauty,Nairobi,Kenya,Susan,1549,Davis,Home Office,Nairobi State,745 Main St,11715,60,Health,60.9274,-99.029,Africa,Giza,Egypt,1549,64.37,0.1,91.95,0.2195,7,579.28,579.28,127.14,West Africa,Giza Province,Complete,Hair Dryer Pro,91.95,Same Day
Transfer,2,1,-89.26,4876.63,Delivered,0,8,Books,New York,United States,Richard,1700,Adams,Home Office,New York State,350 Cedar St,14287,80,Media,-21.4433,85.9819,USCA,Los Angeles,United States,1700,126.78,0.25,50.71,-0.2347,10,380.33,380.33,-89.26,North America,Los Angeles Province,On Hold,Data Science Handbook,50.71,Same Day
Debit,4,5,60.62,6832.41,On Hold,0,7,Automotive,Bogotá,Colombia,Anthony,1333,Wright,Corporate,Bogotá State,879 Pine St,23624,70,Auto Parts,-33.3247,164.2594,LATAM,Antofagasta,Chile,1333,13.16,0.05,26.31,0.2425,10,249.94,249.94,60.62,South America,Antofagasta Province,Complete,Car Phone Mount,26.31,Standard Class
Transfer,6,3,36.59,3781.7,Delivered,1,8,Books,Port Harcourt,Nigeria,David,1741,Scott,Consumer,Port Harcourt State,997 Pine St,32514,80,Media,57.2158,12.623,Africa,Port Elizabeth,South Africa,1741,12.53,0.05,31.32,0.1537,8,238.03,238.03,36.59,East Africa,Port Elizabeth Province,Complete,Business Strategy,31.32,Second Class
Transfer,1,2,-690.87,452.12,Delivered,0,10,Garden & Tools,Lagos,Nigeria,David,1248,Hill,Home Office,Lagos State,751 Cedar St,38444,100,Hardware,2.3212,125.6211,Africa,Lagos,Nigeria,1248,1035.77,0.3,383.62,-0.2859,9,2416.81,2416.81,-690.87,South Africa,Lagos Province,Pending,Lawn Mower Electric,383.62,First Class
Credit,6,5,111.4,2485.11,Processing,0,7,Automotive,New York,United States,James,1482,Miller,Home Office,New York State,890 Cedar St,99701,70,Auto Parts,-5.4266,-119.1492,USCA,Calgary,Canada,1482,0.0,0.0,43.51,0.3658,7,304.57,304.57,111.4,North America,Calgary Province,Complete,Car Vacuum,43.51,Standard Class
